[
  {
    "stop_lat":29.696873,
    "wheelchair_boarding":"0",
    "stop_code":3480,
    "stop_lon":-95.336986,
    "stop_id":"3480",
    "stop_url":"",
    "parent_station":"",
    "stop_desc":"",
    "stop_name":"MARTIN LUTHER KING BLVD @ GRIGGS RD",
    "location_type":"0",
    "zone_id":""
  },
  {
    "stop_lat":29.77923,
    "wheelchair_boarding":"0",
    "stop_code":11543,
    "stop_lon":-95.544646,
    "stop_id":"11543",
    "stop_url":"",
    "parent_station":"",
    "stop_desc":"",
    "stop_name":"GESSNER RD @ KINGSRIDE LN",
    "location_type":"0",
    "zone_id":""
  },
  {
    "stop_lat":29.810139,
    "wheelchair_boarding":"0",
    "stop_code":11546,
    "stop_lon":-95.471815,
    "stop_id":"11546",
    "stop_url":"",
    "parent_station":"",
    "stop_desc":"",
    "stop_name":"HEMPSTEAD RD @ FAIRWAY PARK DR",
    "location_type":"0",
    "zone_id":""
  },
  {
    "stop_lat":29.80997,
    "wheelchair_boarding":"0",
    "stop_code":11547,
    "stop_lon":-95.471921,
    "stop_id":"11547",
    "stop_url":"",
    "parent_station":"",
    "stop_desc":"",
    "stop_name":"HEMPSTEAD RD @ ANTOINE DR",
    "location_type":"0",
    "zone_id":""
  },
  {
    "stop_lat":29.800496,
    "wheelchair_boarding":"0",
    "stop_code":11544,
    "stop_lon":-95.51202,
    "stop_id":"11544",
    "stop_url":"",
    "parent_station":"",
    "stop_desc":"",
    "stop_name":"LONG POINT RD @ BLALOCK RD",
    "location_type":"0",
    "zone_id":""
  },
  {
    "stop_lat":29.802532,
    "wheelchair_boarding":"0",
    "stop_code":11545,
    "stop_lon":-95.509717,
    "stop_id":"11545",
    "stop_url":"",
    "parent_station":"",
    "stop_desc":"",
    "stop_name":"LONG POINT RD @ SPRING BRANCH RD",
    "location_type":"0",
    "zone_id":""
  },
  {
    "stop_lat":29.794994,
    "wheelchair_boarding":"0",
    "stop_code":11548,
    "stop_lon":-95.485988,
    "stop_id":"11548",
    "stop_url":"",
    "parent_station":"",
    "stop_desc":"",
    "stop_name":"WESTVIEW DR @ WIRT RD",
    "location_type":"0",
    "zone_id":""
  },
  {
    "stop_lat":29.792462,
    "wheelchair_boarding":"0",
    "stop_code":11549,
    "stop_lon":-95.457135,
    "stop_id":"11549",
    "stop_url":"",
    "parent_station":"",
    "stop_desc":"",
    "stop_name":"POST OAK RD @ CLARKSON LN",
    "location_type":"0",
    "zone_id":""
  },
  {
    "stop_lat":29.705611,
    "wheelchair_boarding":"0",
    "stop_code":5988,
    "stop_lon":-95.461105,
    "stop_id":"5988",
    "stop_url":"",
    "parent_station":"",
    "stop_desc":"",
    "stop_name":"BELLAIRE BLVD @ 1ST ST",
    "location_type":"0",
    "zone_id":""
  },
  {
    "stop_lat":29.705933,
    "wheelchair_boarding":"0",
    "stop_code":5989,
    "stop_lon":-95.461136,
    "stop_id":"5989",
    "stop_url":"",
    "parent_station":"",
    "stop_desc":"",
    "stop_name":"BELLAIRE BLVD @ LOOP",
    "location_type":"0",
    "zone_id":""
  },
  {
    "stop_lat":29.705434,
    "wheelchair_boarding":"0",
    "stop_code":5982,
    "stop_lon":-95.481255,
    "stop_id":"5982",
    "stop_url":"",
    "parent_station":"",
    "stop_desc":"",
    "stop_name":"BELLAIRE BLVD @ ALDER DR",
    "location_type":"0",
    "zone_id":""
  },
  {
    "stop_lat":29.705457,
    "wheelchair_boarding":"0",
    "stop_code":5983,
    "stop_lon":-95.478852,
    "stop_id":"5983",
    "stop_url":"",
    "parent_station":"",
    "stop_desc":"",
    "stop_name":"BELLAIRE BLVD @ CHETWOOD DR",
    "location_type":"0",
    "zone_id":""
  },
  {
    "stop_lat":29.705396,
    "wheelchair_boarding":"0",
    "stop_code":5980,
    "stop_lon":-95.485024,
    "stop_id":"5980",
    "stop_url":"",
    "parent_station":"",
    "stop_desc":"",
    "stop_name":"BELLAIRE BLVD @ RENWICK DR",
    "location_type":"0",
    "zone_id":""
  },
  {
    "stop_lat":29.705405,
    "wheelchair_boarding":"0",
    "stop_code":5981,
    "stop_lon":-95.482659,
    "stop_id":"5981",
    "stop_url":"",
    "parent_station":"",
    "stop_desc":"",
    "stop_name":"BELLAIRE BLVD @ ATWELL DR",
    "location_type":"0",
    "zone_id":""
  },
  {
    "stop_lat":29.705494,
    "wheelchair_boarding":"0",
    "stop_code":5986,
    "stop_lon":-95.472641,
    "stop_id":"5986",
    "stop_url":"",
    "parent_station":"",
    "stop_desc":"",
    "stop_name":"BELLAIRE BLVD @ BISSONNET ST",
    "location_type":"0",
    "zone_id":""
  },
  {
    "stop_lat":29.705469,
    "wheelchair_boarding":"0",
    "stop_code":5987,
    "stop_lon":-95.463776,
    "stop_id":"5987",
    "stop_url":"",
    "parent_station":"",
    "stop_desc":"",
    "stop_name":"BELLAIRE BLVD @ 2ND ST",
    "location_type":"0",
    "zone_id":""
  },
  {
    "stop_lat":29.705479,
    "wheelchair_boarding":"0",
    "stop_code":5984,
    "stop_lon":-95.476578,
    "stop_id":"5984",
    "stop_url":"",
    "parent_station":"",
    "stop_desc":"",
    "stop_name":"BELLAIRE BLVD @ CHIMNEY ROCK RD",
    "location_type":"0",
    "zone_id":""
  },
  {
    "stop_lat":29.705488,
    "wheelchair_boarding":"0",
    "stop_code":5985,
    "stop_lon":-95.47567,
    "stop_id":"5985",
    "stop_url":"",
    "parent_station":"",
    "stop_desc":"",
    "stop_name":"BELLAIRE BLVD @ CHIMNEY ROCK RD",
    "location_type":"0",
    "zone_id":""
  },
  {
    "stop_lat":29.676387,
    "wheelchair_boarding":"0",
    "stop_code":6970,
    "stop_lon":-95.482842,
    "stop_id":"6970",
    "stop_url":"",
    "parent_station":"",
    "stop_desc":"",
    "stop_name":"BRAESWOOD BLVD @ BURDINE ST",
    "location_type":"0",
    "zone_id":""
  },
  {
    "stop_lat":29.90705,
    "wheelchair_boarding":"0",
    "stop_code":6796,
    "stop_lon":-95.47312,
    "stop_id":"6796",
    "stop_url":"",
    "parent_station":"",
    "stop_desc":"",
    "stop_name":"SH 249 HWY @ MOSIELEE ST",
    "location_type":"0",
    "zone_id":""
  },
  {
    "stop_lat":29.908895,
    "wheelchair_boarding":"0",
    "stop_code":6797,
    "stop_lon":-95.475998,
    "stop_id":"6797",
    "stop_url":"",
    "parent_station":"",
    "stop_desc":"",
    "stop_name":"SH 249 HWY @ ROMONA BLVD",
    "location_type":"0",
    "zone_id":""
  },
  {
    "stop_lat":29.933069,
    "wheelchair_boarding":"0",
    "stop_code":6794,
    "stop_lon":-95.412476,
    "stop_id":"6794",
    "stop_url":"",
    "parent_station":"",
    "stop_desc":"NORTH FREEWAY & PLAZA VERDE DR",
    "stop_name":"I-45 SERVICE RD @ ALDINE BENDER",
    "location_type":"0",
    "zone_id":""
  },
  {
    "stop_lat":29.927877,
    "wheelchair_boarding":"0",
    "stop_code":6795,
    "stop_lon":-95.412422,
    "stop_id":"6795",
    "stop_url":"",
    "parent_station":"",
    "stop_desc":"",
    "stop_name":"NORTH FREEWAY   @ GILLESPI ST",
    "location_type":"0",
    "zone_id":""
  },
  {
    "stop_lat":29.93534,
    "wheelchair_boarding":"0",
    "stop_code":6793,
    "stop_lon":-95.41283,
    "stop_id":"6793",
    "stop_url":"",
    "parent_station":"",
    "stop_desc":"",
    "stop_name":"NORTH FREEWAY   @ PLAZA VERDE DR",
    "location_type":"0",
    "zone_id":""
  },
  {
    "stop_lat":29.675819,
    "wheelchair_boarding":"0",
    "stop_code":6971,
    "stop_lon":-95.486252,
    "stop_id":"6971",
    "stop_url":"",
    "parent_station":"",
    "stop_desc":"",
    "stop_name":"BRAESWOOD BLVD @ MULLINS DR",
    "location_type":"0",
    "zone_id":""
  },
  {
    "stop_lat":29.911799,
    "wheelchair_boarding":"0",
    "stop_code":6798,
    "stop_lon":-95.480604,
    "stop_id":"6798",
    "stop_url":"",
    "parent_station":"",
    "stop_desc":"",
    "stop_name":"SH 249 HWY @ ANTOINE DR",
    "location_type":"0",
    "zone_id":""
  },
  {
    "stop_lat":29.943703,
    "wheelchair_boarding":"0",
    "stop_code":6799,
    "stop_lon":-95.52443,
    "stop_id":"6799",
    "stop_url":"",
    "parent_station":"",
    "stop_desc":"",
    "stop_name":"SH 249 HWY @ HIGH LIFE DR",
    "location_type":"0",
    "zone_id":""
  },
  {
    "stop_lat":29.762543,
    "wheelchair_boarding":"0",
    "stop_code":277,
    "stop_lon":-95.35955,
    "stop_id":"277",
    "stop_url":"",
    "parent_station":"",
    "stop_desc":"",
    "stop_name":"FRANKLIN ST @ FANNIN ST",
    "location_type":"0",
    "zone_id":""
  },
  {
    "stop_lat":29.763596,
    "wheelchair_boarding":"0",
    "stop_code":279,
    "stop_lon":-95.36499,
    "stop_id":"279",
    "stop_url":"",
    "parent_station":"",
    "stop_desc":"",
    "stop_name":"PRESTON ST @ SMITH ST",
    "location_type":"0",
    "zone_id":""
  },
  {
    "stop_lat":29.603295,
    "wheelchair_boarding":"0",
    "stop_code":12019,
    "stop_lon":-95.507409,
    "stop_id":"12019",
    "stop_url":"",
    "parent_station":"",
    "stop_desc":"",
    "stop_name":"FONDREN RD @ SIGN ST",
    "location_type":"0",
    "zone_id":""
  },
  {
    "stop_lat":29.603595,
    "wheelchair_boarding":"0",
    "stop_code":12018,
    "stop_lon":-95.507684,
    "stop_id":"12018",
    "stop_url":"",
    "parent_station":"",
    "stop_desc":"",
    "stop_name":"FONDREN RD @ SIGN ST",
    "location_type":"0",
    "zone_id":""
  },
  {
    "stop_lat":29.725171,
    "wheelchair_boarding":"0",
    "stop_code":2146,
    "stop_lon":-95.369766,
    "stop_id":"2146",
    "stop_url":"",
    "parent_station":"",
    "stop_desc":"",
    "stop_name":"LIVE OAK ST @ ROSEWOOD ST",
    "location_type":"0",
    "zone_id":""
  },
  {
    "stop_lat":29.609333,
    "wheelchair_boarding":"0",
    "stop_code":12015,
    "stop_lon":-95.507426,
    "stop_id":"12015",
    "stop_url":"",
    "parent_station":"",
    "stop_desc":"",
    "stop_name":"FONDREN RD @ CHASEWOOD DR",
    "location_type":"0",
    "zone_id":""
  },
  {
    "stop_lat":29.609503,
    "wheelchair_boarding":"0",
    "stop_code":12014,
    "stop_lon":-95.507785,
    "stop_id":"12014",
    "stop_url":"",
    "parent_station":"",
    "stop_desc":"",
    "stop_name":"FONDREN RD @ CHASEWOOD DR",
    "location_type":"0",
    "zone_id":""
  },
  {
    "stop_lat":29.60583,
    "wheelchair_boarding":"0",
    "stop_code":12017,
    "stop_lon":-95.507226,
    "stop_id":"12017",
    "stop_url":"",
    "parent_station":"",
    "stop_desc":"",
    "stop_name":"FONDREN RD @ CHASEWIND DR",
    "location_type":"0",
    "zone_id":""
  },
  {
    "stop_lat":29.606123,
    "wheelchair_boarding":"0",
    "stop_code":12016,
    "stop_lon":-95.507433,
    "stop_id":"12016",
    "stop_url":"",
    "parent_station":"",
    "stop_desc":"",
    "stop_name":"FONDREN RD @ COVENANT CREST DR",
    "location_type":"0",
    "zone_id":""
  },
  {
    "stop_lat":29.614778,
    "wheelchair_boarding":"0",
    "stop_code":12011,
    "stop_lon":-95.508974,
    "stop_id":"12011",
    "stop_url":"",
    "parent_station":"",
    "stop_desc":"",
    "stop_name":"FONDREN RD @ CANGELOSI RD",
    "location_type":"0",
    "zone_id":""
  },
  {
    "stop_lat":29.615111,
    "wheelchair_boarding":"0",
    "stop_code":12010,
    "stop_lon":-95.509223,
    "stop_id":"12010",
    "stop_url":"",
    "parent_station":"",
    "stop_desc":"",
    "stop_name":"FONDREN RD @ BULL RUN RD",
    "location_type":"0",
    "zone_id":""
  },
  {
    "stop_lat":29.612653,
    "wheelchair_boarding":"0",
    "stop_code":12013,
    "stop_lon":-95.508859,
    "stop_id":"12013",
    "stop_url":"",
    "parent_station":"",
    "stop_desc":"",
    "stop_name":"FONDREN RD @ WILLOW OAK DR",
    "location_type":"0",
    "zone_id":""
  },
  {
    "stop_lat":29.612887,
    "wheelchair_boarding":"0",
    "stop_code":12012,
    "stop_lon":-95.509181,
    "stop_id":"12012",
    "stop_url":"",
    "parent_station":"",
    "stop_desc":"",
    "stop_name":"FONDREN RD @ WILLOW OAK DR",
    "location_type":"0",
    "zone_id":""
  },
  {
    "stop_lat":29.705484,
    "wheelchair_boarding":"0",
    "stop_code":3486,
    "stop_lon":-95.334663,
    "stop_id":"3486",
    "stop_url":"",
    "parent_station":"",
    "stop_desc":"MARTIN LUTHER KING BLVD & VENTURA LN",
    "stop_name":"MARTIN LUTHER KING BLVD @ VENTURA L",
    "location_type":"0",
    "zone_id":""
  },
  {
    "stop_lat":29.64255,
    "wheelchair_boarding":"0",
    "stop_code":10709,
    "stop_lon":-95.368473,
    "stop_id":"10709",
    "stop_url":"",
    "parent_station":"",
    "stop_desc":"SCOTT ST & SOUTH ACRES DR",
    "stop_name":"SCOTT ST @ S AIRPORT",
    "location_type":"0",
    "zone_id":""
  },
  {
    "stop_lat":29.742279,
    "wheelchair_boarding":"0",
    "stop_code":9528,
    "stop_lon":-95.373877,
    "stop_id":"9528",
    "stop_url":"",
    "parent_station":"",
    "stop_desc":"",
    "stop_name":"SAN JACINTO ST @ TUAM ST",
    "location_type":"0",
    "zone_id":""
  },
  {
    "stop_lat":29.744135,
    "wheelchair_boarding":"0",
    "stop_code":9529,
    "stop_lon":-95.372429,
    "stop_id":"9529",
    "stop_url":"",
    "parent_station":"",
    "stop_desc":"",
    "stop_name":"SAN JACINTO ST @ MC GOWEN ST",
    "location_type":"0",
    "zone_id":""
  },
  {
    "stop_lat":29.73318,
    "wheelchair_boarding":"0",
    "stop_code":9258,
    "stop_lon":-95.32126,
    "stop_id":"9258",
    "stop_url":"",
    "parent_station":"",
    "stop_desc":"",
    "stop_name":"COLLIER ST @ BELL ST",
    "location_type":"0",
    "zone_id":""
  },
  {
    "stop_lat":29.73189,
    "wheelchair_boarding":"0",
    "stop_code":9259,
    "stop_lon":-95.321769,
    "stop_id":"9259",
    "stop_url":"",
    "parent_station":"",
    "stop_desc":"",
    "stop_name":"COLLIER ST @ PEASE ST",
    "location_type":"0",
    "zone_id":""
  },
  {
    "stop_lat":29.73168,
    "wheelchair_boarding":"0",
    "stop_code":9256,
    "stop_lon":-95.32175,
    "stop_id":"9256",
    "stop_url":"",
    "parent_station":"",
    "stop_desc":"",
    "stop_name":"COLLIER ST @ PEASE ST",
    "location_type":"0",
    "zone_id":""
  },
  {
    "stop_lat":29.73304,
    "wheelchair_boarding":"0",
    "stop_code":9257,
    "stop_lon":-95.32122,
    "stop_id":"9257",
    "stop_url":"",
    "parent_station":"",
    "stop_desc":"",
    "stop_name":"COLLIER ST @ BELL ST",
    "location_type":"0",
    "zone_id":""
  },
  {
    "stop_lat":29.72893,
    "wheelchair_boarding":"0",
    "stop_code":9254,
    "stop_lon":-95.32285,
    "stop_id":"9254",
    "stop_url":"",
    "parent_station":"",
    "stop_desc":"",
    "stop_name":"COLLIER ST @ MULFORD ST",
    "location_type":"0",
    "zone_id":""
  },
  {
    "stop_lat":29.7303,
    "wheelchair_boarding":"0",
    "stop_code":9255,
    "stop_lon":-95.32231,
    "stop_id":"9255",
    "stop_url":"",
    "parent_station":"",
    "stop_desc":"",
    "stop_name":"COLLIER ST @ LYNDSAY",
    "location_type":"0",
    "zone_id":""
  },
  {
    "stop_lat":29.727335,
    "wheelchair_boarding":"0",
    "stop_code":9252,
    "stop_lon":-95.31961,
    "stop_id":"9252",
    "stop_url":"",
    "parent_station":"",
    "stop_desc":"",
    "stop_name":"LAWNDALE ST @ HACKNEY ST",
    "location_type":"0",
    "zone_id":""
  },
  {
    "stop_lat":29.728037,
    "wheelchair_boarding":"0",
    "stop_code":9253,
    "stop_lon":-95.322014,
    "stop_id":"9253",
    "stop_url":"",
    "parent_station":"",
    "stop_desc":"LAWNDALE ST & DES JARDINES",
    "stop_name":"LAWNDALE ST @ COLLIER ST",
    "location_type":"0",
    "zone_id":""
  },
  {
    "stop_lat":29.726361,
    "wheelchair_boarding":"0",
    "stop_code":9250,
    "stop_lon":-95.316384,
    "stop_id":"9250",
    "stop_url":"",
    "parent_station":"",
    "stop_desc":"",
    "stop_name":"LAWNDALE ST @ JOCELYN ST",
    "location_type":"0",
    "zone_id":""
  },
  {
    "stop_lat":29.726748,
    "wheelchair_boarding":"0",
    "stop_code":9251,
    "stop_lon":-95.317665,
    "stop_id":"9251",
    "stop_url":"",
    "parent_station":"",
    "stop_desc":"",
    "stop_name":"LAWNDALE ST @ DISMUKE ST",
    "location_type":"0",
    "zone_id":""
  },
  {
    "stop_lat":29.867248,
    "wheelchair_boarding":"0",
    "stop_code":4644,
    "stop_lon":-95.368637,
    "stop_id":"4644",
    "stop_url":"",
    "parent_station":"",
    "stop_desc":"",
    "stop_name":"MC GALLION RD @ BENBROOK DR",
    "location_type":"0",
    "zone_id":""
  },
  {
    "stop_lat":29.864749,
    "wheelchair_boarding":"0",
    "stop_code":4645,
    "stop_lon":-95.368286,
    "stop_id":"4645",
    "stop_url":"",
    "parent_station":"",
    "stop_desc":"",
    "stop_name":"MC GALLION RD @ RITTENHOUSE ST",
    "location_type":"0",
    "zone_id":""
  },
  {
    "stop_lat":29.712201,
    "wheelchair_boarding":"0",
    "stop_code":3519,
    "stop_lon":-95.31575,
    "stop_id":"3519",
    "stop_url":"",
    "parent_station":"",
    "stop_desc":"",
    "stop_name":"TELEPHONE RD @ MAXWELL LN",
    "location_type":"0",
    "zone_id":""
  },
  {
    "stop_lat":29.712685,
    "wheelchair_boarding":"0",
    "stop_code":3518,
    "stop_lon":-95.316032,
    "stop_id":"3518",
    "stop_url":"",
    "parent_station":"",
    "stop_desc":"",
    "stop_name":"TELEPHONE RD @ WAYSIDE DR",
    "location_type":"0",
    "zone_id":""
  },
  {
    "stop_lat":29.7054,
    "wheelchair_boarding":"0",
    "stop_code":3513,
    "stop_lon":-95.30737,
    "stop_id":"3513",
    "stop_url":"",
    "parent_station":"",
    "stop_desc":"",
    "stop_name":"TELEPHONE RD @ BROAD ST",
    "location_type":"0",
    "zone_id":""
  },
  {
    "stop_lat":29.70435,
    "wheelchair_boarding":"0",
    "stop_code":3512,
    "stop_lon":-95.306,
    "stop_id":"3512",
    "stop_url":"",
    "parent_station":"",
    "stop_desc":"",
    "stop_name":"TELEPHONE RD @ PECAN ST",
    "location_type":"0",
    "zone_id":""
  },
  {
    "stop_lat":29.70339,
    "wheelchair_boarding":"0",
    "stop_code":3511,
    "stop_lon":-95.30458,
    "stop_id":"3511",
    "stop_url":"",
    "parent_station":"",
    "stop_desc":"",
    "stop_name":"WINKLER DR @ TELEPHONE RD",
    "location_type":"0",
    "zone_id":""
  },
  {
    "stop_lat":29.702587,
    "wheelchair_boarding":"0",
    "stop_code":3510,
    "stop_lon":-95.301902,
    "stop_id":"3510",
    "stop_url":"",
    "parent_station":"",
    "stop_desc":"",
    "stop_name":"WINKLER DR @ HASBROOK ST",
    "location_type":"0",
    "zone_id":""
  },
  {
    "stop_lat":29.71167,
    "wheelchair_boarding":"0",
    "stop_code":3517,
    "stop_lon":-95.31529,
    "stop_id":"3517",
    "stop_url":"",
    "parent_station":"",
    "stop_desc":"",
    "stop_name":"TELEPHONE RD @ MAXWELL LN",
    "location_type":"0",
    "zone_id":""
  },
  {
    "stop_lat":29.70774,
    "wheelchair_boarding":"0",
    "stop_code":3516,
    "stop_lon":-95.31203,
    "stop_id":"3516",
    "stop_url":"",
    "parent_station":"",
    "stop_desc":"",
    "stop_name":"TELEPHONE RD @ BEATTY ST",
    "location_type":"0",
    "zone_id":""
  },
  {
    "stop_lat":29.706984,
    "wheelchair_boarding":"0",
    "stop_code":3515,
    "stop_lon":-95.310189,
    "stop_id":"3515",
    "stop_url":"",
    "parent_station":"",
    "stop_desc":"",
    "stop_name":"TELEPHONE RD @ GOULD ST",
    "location_type":"0",
    "zone_id":""
  },
  {
    "stop_lat":29.70632,
    "wheelchair_boarding":"0",
    "stop_code":3514,
    "stop_lon":-95.30867,
    "stop_id":"3514",
    "stop_url":"",
    "parent_station":"",
    "stop_desc":"",
    "stop_name":"TELEPHONE RD @ GRIGGS RD",
    "location_type":"0",
    "zone_id":""
  },
  {
    "stop_lat":29.873754,
    "wheelchair_boarding":"0",
    "stop_code":2688,
    "stop_lon":-95.32737,
    "stop_id":"2688",
    "stop_url":"",
    "parent_station":"",
    "stop_desc":"",
    "stop_name":"EASTEX FREEWAY   @ DARWIN RD",
    "location_type":"0",
    "zone_id":""
  },
  {
    "stop_lat":29.876094,
    "wheelchair_boarding":"0",
    "stop_code":2689,
    "stop_lon":-95.326019,
    "stop_id":"2689",
    "stop_url":"",
    "parent_station":"",
    "stop_desc":"",
    "stop_name":"EASTEX FREEWAY   @ CEDAR HILL LN",
    "location_type":"0",
    "zone_id":""
  },
  {
    "stop_lat":29.84708,
    "wheelchair_boarding":"0",
    "stop_code":2684,
    "stop_lon":-95.33295,
    "stop_id":"2684",
    "stop_url":"",
    "parent_station":"",
    "stop_desc":"",
    "stop_name":"EASTEX FREEWAY   @ COLLEY",
    "location_type":"0",
    "zone_id":""
  },
  {
    "stop_lat":29.866391,
    "wheelchair_boarding":"0",
    "stop_code":2685,
    "stop_lon":-95.331574,
    "stop_id":"2685",
    "stop_url":"",
    "parent_station":"",
    "stop_desc":"",
    "stop_name":"EASTEX FREEWAY   @ LANGLEY RD",
    "location_type":"0",
    "zone_id":""
  },
  {
    "stop_lat":29.868999,
    "wheelchair_boarding":"0",
    "stop_code":2686,
    "stop_lon":-95.330131,
    "stop_id":"2686",
    "stop_url":"",
    "parent_station":"",
    "stop_desc":"",
    "stop_name":"EASTEX FREEWAY   @ LITTLE YORK RD",
    "location_type":"0",
    "zone_id":""
  },
  {
    "stop_lat":29.870942,
    "wheelchair_boarding":"0",
    "stop_code":2687,
    "stop_lon":-95.329079,
    "stop_id":"2687",
    "stop_url":"",
    "parent_station":"",
    "stop_desc":"",
    "stop_name":"EASTEX FREEWAY   @ LITTLECREST RD",
    "location_type":"0",
    "zone_id":""
  },
  {
    "stop_lat":29.83443,
    "wheelchair_boarding":"0",
    "stop_code":2680,
    "stop_lon":-95.3335,
    "stop_id":"2680",
    "stop_url":"",
    "parent_station":"",
    "stop_desc":"",
    "stop_name":"EASTEX FREEWAY   @ WEAVER RD",
    "location_type":"0",
    "zone_id":""
  },
  {
    "stop_lat":29.83724,
    "wheelchair_boarding":"0",
    "stop_code":2681,
    "stop_lon":-95.33297,
    "stop_id":"2681",
    "stop_url":"",
    "parent_station":"",
    "stop_desc":"",
    "stop_name":"EASTEX FREEWAY   @ KEELAND ST",
    "location_type":"0",
    "zone_id":""
  },
  {
    "stop_lat":29.839428,
    "wheelchair_boarding":"0",
    "stop_code":2682,
    "stop_lon":-95.332848,
    "stop_id":"2682",
    "stop_url":"",
    "parent_station":"",
    "stop_desc":"",
    "stop_name":"EASTEX FREEWAY   @ LAURA KOPPE RD",
    "location_type":"0",
    "zone_id":""
  },
  {
    "stop_lat":29.84437,
    "wheelchair_boarding":"0",
    "stop_code":2683,
    "stop_lon":-95.33293,
    "stop_id":"2683",
    "stop_url":"",
    "parent_station":"",
    "stop_desc":"",
    "stop_name":"EASTEX FREEWAY   @ LAURA KOPPE RD",
    "location_type":"0",
    "zone_id":""
  },
  {
    "stop_lat":29.724353,
    "wheelchair_boarding":"0",
    "stop_code":1613,
    "stop_lon":-95.36213,
    "stop_id":"1613",
    "stop_url":"",
    "parent_station":"",
    "stop_desc":"",
    "stop_name":"CLEBURNE ST @ VELASCO",
    "location_type":"0",
    "zone_id":""
  },
  {
    "stop_lat":29.655206,
    "wheelchair_boarding":"0",
    "stop_code":99,
    "stop_lon":-95.559837,
    "stop_id":"99",
    "stop_url":"",
    "parent_station":"",
    "stop_desc":"ROARK RD",
    "stop_name":"WEST BELLFORT PR",
    "location_type":"0",
    "zone_id":""
  },
  {
    "stop_lat":29.927812,
    "wheelchair_boarding":"0",
    "stop_code":98,
    "stop_lon":-95.499306,
    "stop_id":"98",
    "stop_url":"",
    "parent_station":"",
    "stop_desc":"SETON LAKE DR",
    "stop_name":"SETON LAKE PR",
    "location_type":"0",
    "zone_id":""
  },
  {
    "stop_lat":30.054341,
    "wheelchair_boarding":"0",
    "stop_code":91,
    "stop_lon":-95.183067,
    "stop_id":"91",
    "stop_url":"",
    "parent_station":"",
    "stop_desc":"LAKE HOUSTON PKWY",
    "stop_name":"KINGWOOD PR",
    "location_type":"0",
    "zone_id":""
  },
  {
    "stop_lat":29.927799,
    "wheelchair_boarding":"0",
    "stop_code":90,
    "stop_lon":-95.298148,
    "stop_id":"90",
    "stop_url":"",
    "parent_station":"",
    "stop_desc":"OLD HUMBLE RD",
    "stop_name":"EASTEX PR",
    "location_type":"0",
    "zone_id":""
  },
  {
    "stop_lat":29.869782,
    "wheelchair_boarding":"0",
    "stop_code":93,
    "stop_lon":-95.553165,
    "stop_id":"93",
    "stop_url":"",
    "parent_station":"",
    "stop_desc":"HEMPSTEAD RD",
    "stop_name":"WEST LITTLE YORK PR",
    "location_type":"0",
    "zone_id":""
  },
  {
    "stop_lat":29.973646,
    "wheelchair_boarding":"0",
    "stop_code":92,
    "stop_lon":-95.425368,
    "stop_id":"92",
    "stop_url":"",
    "parent_station":"",
    "stop_desc":"KUYKENDAHL RD",
    "stop_name":"KUYKENDAHL PR",
    "location_type":"0",
    "zone_id":""
  },
  {
    "stop_lat":29.902195,
    "wheelchair_boarding":"0",
    "stop_code":95,
    "stop_lon":-95.594044,
    "stop_id":"95",
    "stop_url":"",
    "parent_station":"",
    "stop_desc":"NORTHWEST FREEWAY",
    "stop_name":"NORTHWEST STATION PR",
    "location_type":"0",
    "zone_id":""
  },
  {
    "stop_lat":29.711374,
    "wheelchair_boarding":"0",
    "stop_code":94,
    "stop_lon":-95.62941,
    "stop_id":"94",
    "stop_url":"",
    "parent_station":"",
    "stop_desc":"",
    "stop_name":"MISSION BEND PR",
    "location_type":"0",
    "zone_id":""
  },
  {
    "stop_lat":29.621839,
    "wheelchair_boarding":"0",
    "stop_code":97,
    "stop_lon":-95.50714,
    "stop_id":"97",
    "stop_url":"",
    "parent_station":"",
    "stop_desc":"FONDREN RD",
    "stop_name":"MISSOURI CITY PR",
    "location_type":"0",
    "zone_id":""
  },
  {
    "stop_lat":29.7831,
    "wheelchair_boarding":"0",
    "stop_code":8243,
    "stop_lon":-95.575798,
    "stop_id":"8243",
    "stop_url":"",
    "parent_station":"",
    "stop_desc":"",
    "stop_name":"WILCREST DR @ LASSO LN",
    "location_type":"0",
    "zone_id":""
  },
  {
    "stop_lat":29.7423,
    "wheelchair_boarding":"0",
    "stop_code":1177,
    "stop_lon":-95.34596,
    "stop_id":"1177",
    "stop_url":"",
    "parent_station":"",
    "stop_desc":"",
    "stop_name":"POLK ST @ SAMPSON ST",
    "location_type":"0",
    "zone_id":""
  },
  {
    "stop_lat":29.7416,
    "wheelchair_boarding":"0",
    "stop_code":1176,
    "stop_lon":-95.34418,
    "stop_id":"1176",
    "stop_url":"",
    "parent_station":"",
    "stop_desc":"",
    "stop_name":"POLK ST @ EDMUNDSON",
    "location_type":"0",
    "zone_id":""
  },
  {
    "stop_lat":29.74122,
    "wheelchair_boarding":"0",
    "stop_code":1175,
    "stop_lon":-95.34293,
    "stop_id":"1175",
    "stop_url":"",
    "parent_station":"",
    "stop_desc":"",
    "stop_name":"POLK ST @ MILBY ST",
    "location_type":"0",
    "zone_id":""
  },
  {
    "stop_lat":29.74058,
    "wheelchair_boarding":"0",
    "stop_code":1174,
    "stop_lon":-95.34083,
    "stop_id":"1174",
    "stop_url":"",
    "parent_station":"",
    "stop_desc":"",
    "stop_name":"POLK ST @ ST JOSEPH",
    "location_type":"0",
    "zone_id":""
  },
  {
    "stop_lat":29.74019,
    "wheelchair_boarding":"0",
    "stop_code":1173,
    "stop_lon":-95.339514,
    "stop_id":"1173",
    "stop_url":"",
    "parent_station":"",
    "stop_desc":"",
    "stop_name":"POLK ST @ CULLEN BLVD",
    "location_type":"0",
    "zone_id":""
  },
  {
    "stop_lat":29.73928,
    "wheelchair_boarding":"0",
    "stop_code":1172,
    "stop_lon":-95.33654,
    "stop_id":"1172",
    "stop_url":"",
    "parent_station":"",
    "stop_desc":"",
    "stop_name":"POLK ST @ SIDNEY ST",
    "location_type":"0",
    "zone_id":""
  },
  {
    "stop_lat":29.73872,
    "wheelchair_boarding":"0",
    "stop_code":1171,
    "stop_lon":-95.33474,
    "stop_id":"1171",
    "stop_url":"",
    "parent_station":"",
    "stop_desc":"",
    "stop_name":"POLK ST @ EASTWOOD",
    "location_type":"0",
    "zone_id":""
  },
  {
    "stop_lat":29.73809,
    "wheelchair_boarding":"0",
    "stop_code":1170,
    "stop_lon":-95.33249,
    "stop_id":"1170",
    "stop_url":"",
    "parent_station":"",
    "stop_desc":"",
    "stop_name":"POLK ST @ TELEPHONE RD",
    "location_type":"0",
    "zone_id":""
  },
  {
    "stop_lat":29.74431,
    "wheelchair_boarding":"0",
    "stop_code":1179,
    "stop_lon":-95.34937,
    "stop_id":"1179",
    "stop_url":"",
    "parent_station":"",
    "stop_desc":"",
    "stop_name":"POLK ST @ ENNIS ST",
    "location_type":"0",
    "zone_id":""
  },
  {
    "stop_lat":29.74357,
    "wheelchair_boarding":"0",
    "stop_code":1178,
    "stop_lon":-95.34814,
    "stop_id":"1178",
    "stop_url":"",
    "parent_station":"",
    "stop_desc":"",
    "stop_name":"POLK ST @ PALMER ST",
    "location_type":"0",
    "zone_id":""
  },
  {
    "stop_lat":29.733762,
    "wheelchair_boarding":"0",
    "stop_code":1028,
    "stop_lon":-95.300332,
    "stop_id":"1028",
    "stop_url":"",
    "parent_station":"",
    "stop_desc":"",
    "stop_name":"CAPITOL ST @ 71ST ST",
    "location_type":"0",
    "zone_id":""
  },
  {
    "stop_lat":29.731684,
    "wheelchair_boarding":"0",
    "stop_code":7188,
    "stop_lon":-95.468014,
    "stop_id":"7188",
    "stop_url":"",
    "parent_station":"",
    "stop_desc":"",
    "stop_name":"RICHMOND AVE @ RICE AVE",
    "location_type":"0",
    "zone_id":""
  },
  {
    "stop_lat":29.731649,
    "wheelchair_boarding":"0",
    "stop_code":7189,
    "stop_lon":-95.471542,
    "stop_id":"7189",
    "stop_url":"",
    "parent_station":"",
    "stop_desc":"",
    "stop_name":"RICHMOND AVE @ YORKTOWN ST",
    "location_type":"0",
    "zone_id":""
  },
  {
    "stop_lat":29.683477,
    "wheelchair_boarding":"0",
    "stop_code":877,
    "stop_lon":-95.242806,
    "stop_id":"877",
    "stop_url":"",
    "parent_station":"",
    "stop_desc":"",
    "stop_name":"FOREST OAKS BLVD @ ALLENDALE RD",
    "location_type":"0",
    "zone_id":""
  },
  {
    "stop_lat":29.753745,
    "wheelchair_boarding":"0",
    "stop_code":7180,
    "stop_lon":-95.541947,
    "stop_id":"7180",
    "stop_url":"",
    "parent_station":"",
    "stop_desc":"",
    "stop_name":"GESSNER RD @ STONEY CREEK DR",
    "location_type":"0",
    "zone_id":""
  },
  {
    "stop_lat":29.750611,
    "wheelchair_boarding":"0",
    "stop_code":7181,
    "stop_lon":-95.538956,
    "stop_id":"7181",
    "stop_url":"",
    "parent_station":"",
    "stop_desc":"",
    "stop_name":"GESSNER RD @ BAYOU ISLAND DR",
    "location_type":"0",
    "zone_id":""
  },
  {
    "stop_lat":29.747724,
    "wheelchair_boarding":"0",
    "stop_code":7182,
    "stop_lon":-95.538574,
    "stop_id":"7182",
    "stop_url":"",
    "parent_station":"",
    "stop_desc":"",
    "stop_name":"GESSNER RD @ BRIAR FOREST DR",
    "location_type":"0",
    "zone_id":""
  },
  {
    "stop_lat":29.744245,
    "wheelchair_boarding":"0",
    "stop_code":7183,
    "stop_lon":-95.538521,
    "stop_id":"7183",
    "stop_url":"",
    "parent_station":"",
    "stop_desc":"",
    "stop_name":"GESSNER RD @ WOODLAKE SQ",
    "location_type":"0",
    "zone_id":""
  },
  {
    "stop_lat":29.742546,
    "wheelchair_boarding":"0",
    "stop_code":7184,
    "stop_lon":-95.538518,
    "stop_id":"7184",
    "stop_url":"",
    "parent_station":"",
    "stop_desc":"",
    "stop_name":"GESSNER RD @ ELLA LEE LN",
    "location_type":"0",
    "zone_id":""
  },
  {
    "stop_lat":29.739583,
    "wheelchair_boarding":"0",
    "stop_code":7185,
    "stop_lon":-95.538483,
    "stop_id":"7185",
    "stop_url":"",
    "parent_station":"",
    "stop_desc":"",
    "stop_name":"GESSNER RD @ ELLA LEE LN",
    "location_type":"0",
    "zone_id":""
  },
  {
    "stop_lat":29.732069,
    "wheelchair_boarding":"0",
    "stop_code":7186,
    "stop_lon":-95.461506,
    "stop_id":"7186",
    "stop_url":"",
    "parent_station":"",
    "stop_desc":"",
    "stop_name":"RICHMOND AVE @ POST OAK BLVD",
    "location_type":"0",
    "zone_id":""
  },
  {
    "stop_lat":29.731947,
    "wheelchair_boarding":"0",
    "stop_code":7187,
    "stop_lon":-95.46385,
    "stop_id":"7187",
    "stop_url":"",
    "parent_station":"",
    "stop_desc":"",
    "stop_name":"RICHMOND AVE @ MC CUE RD",
    "location_type":"0",
    "zone_id":""
  },
  {
    "stop_lat":29.746931,
    "wheelchair_boarding":"0",
    "stop_code":1227,
    "stop_lon":-95.338872,
    "stop_id":"1227",
    "stop_url":"",
    "parent_station":"",
    "stop_desc":"",
    "stop_name":"HARRISBURG BLVD @ EVERTON ST",
    "location_type":"0",
    "zone_id":""
  },
  {
    "stop_lat":29.68618,
    "wheelchair_boarding":"0",
    "stop_code":875,
    "stop_lon":-95.24392,
    "stop_id":"875",
    "stop_url":"",
    "parent_station":"",
    "stop_desc":"",
    "stop_name":"HOWARD DR @ SWEETBRIAR ST",
    "location_type":"0",
    "zone_id":""
  },
  {
    "stop_lat":29.69063,
    "wheelchair_boarding":"0",
    "stop_code":872,
    "stop_lon":-95.24738,
    "stop_id":"872",
    "stop_url":"",
    "parent_station":"",
    "stop_desc":"",
    "stop_name":"ROSA ALLEN DR @ AUBERT",
    "location_type":"0",
    "zone_id":""
  },
  {
    "stop_lat":29.752192,
    "wheelchair_boarding":"0",
    "stop_code":621,
    "stop_lon":-95.371363,
    "stop_id":"621",
    "stop_url":"",
    "parent_station":"",
    "stop_desc":"",
    "stop_name":"MILAM ST @ JEFFERSON ST",
    "location_type":"0",
    "zone_id":""
  },
  {
    "stop_lat":29.742826,
    "wheelchair_boarding":"0",
    "stop_code":3435,
    "stop_lon":-95.408614,
    "stop_id":"3435",
    "stop_url":"",
    "parent_station":"",
    "stop_desc":"",
    "stop_name":"WESTHEIMER RD @ BRUN ST",
    "location_type":"0",
    "zone_id":""
  },
  {
    "stop_lat":29.811062,
    "wheelchair_boarding":"0",
    "stop_code":8549,
    "stop_lon":-95.498117,
    "stop_id":"8549",
    "stop_url":"",
    "parent_station":"",
    "stop_desc":"",
    "stop_name":"HAMMERLY BLVD @ MARNEL RD",
    "location_type":"0",
    "zone_id":""
  },
  {
    "stop_lat":29.69345,
    "wheelchair_boarding":"0",
    "stop_code":870,
    "stop_lon":-95.24572,
    "stop_id":"870",
    "stop_url":"",
    "parent_station":"",
    "stop_desc":"",
    "stop_name":"EL BUEY WAY @ OGILVIE AVE",
    "location_type":"0",
    "zone_id":""
  },
  {
    "stop_lat":29.719477,
    "wheelchair_boarding":"0",
    "stop_code":8019,
    "stop_lon":-95.611229,
    "stop_id":"8019",
    "stop_url":"",
    "parent_station":"",
    "stop_desc":"",
    "stop_name":"ASHFORD POINT DR @ ASHBURNHAM DR",
    "location_type":"0",
    "zone_id":""
  },
  {
    "stop_lat":29.719478,
    "wheelchair_boarding":"0",
    "stop_code":8018,
    "stop_lon":-95.612885,
    "stop_id":"8018",
    "stop_url":"",
    "parent_station":"",
    "stop_desc":"",
    "stop_name":"ASHFORD POINT DR @ OVERTURE DR",
    "location_type":"0",
    "zone_id":""
  },
  {
    "stop_lat":29.717254,
    "wheelchair_boarding":"0",
    "stop_code":8017,
    "stop_lon":-95.613609,
    "stop_id":"8017",
    "stop_url":"",
    "parent_station":"",
    "stop_desc":"",
    "stop_name":"ASHFORD POINT DR @ BRANT ROCK DR",
    "location_type":"0",
    "zone_id":""
  },
  {
    "stop_lat":29.716285,
    "wheelchair_boarding":"0",
    "stop_code":8016,
    "stop_lon":-95.61499,
    "stop_id":"8016",
    "stop_url":"",
    "parent_station":"",
    "stop_desc":"",
    "stop_name":"SYNOTT RD @ ASHFORD POINT DR",
    "location_type":"0",
    "zone_id":""
  },
  {
    "stop_lat":29.714041,
    "wheelchair_boarding":"0",
    "stop_code":8015,
    "stop_lon":-95.61458,
    "stop_id":"8015",
    "stop_url":"",
    "parent_station":"",
    "stop_desc":"",
    "stop_name":"SYNOTT RD @ ALIEF CLODINE RD",
    "location_type":"0",
    "zone_id":""
  },
  {
    "stop_lat":29.69186,
    "wheelchair_boarding":"0",
    "stop_code":871,
    "stop_lon":-95.24831,
    "stop_id":"871",
    "stop_url":"",
    "parent_station":"",
    "stop_desc":"",
    "stop_name":"OGILVIE AVE @ ROSA ALLEN DR",
    "location_type":"0",
    "zone_id":""
  },
  {
    "stop_lat":29.707165,
    "wheelchair_boarding":"0",
    "stop_code":8013,
    "stop_lon":-95.639679,
    "stop_id":"8013",
    "stop_url":"",
    "parent_station":"",
    "stop_desc":"",
    "stop_name":"RIO BONITO RD @ TRES LAGUNAS DR",
    "location_type":"0",
    "zone_id":""
  },
  {
    "stop_lat":29.708598,
    "wheelchair_boarding":"0",
    "stop_code":8012,
    "stop_lon":-95.641655,
    "stop_id":"8012",
    "stop_url":"",
    "parent_station":"",
    "stop_desc":"SIERRA BLANCA DR & PRESIDIO SQUARE BLVD",
    "stop_name":"SIERRA BLANCA DR @ PRESIDIO SQUARE",
    "location_type":"0",
    "zone_id":""
  },
  {
    "stop_lat":29.81069,
    "wheelchair_boarding":"0",
    "stop_code":8543,
    "stop_lon":-95.48065,
    "stop_id":"8543",
    "stop_url":"",
    "parent_station":"",
    "stop_desc":"",
    "stop_name":"HAMMERLY BLVD @ JACQUELYN DR",
    "location_type":"0",
    "zone_id":""
  },
  {
    "stop_lat":29.708797,
    "wheelchair_boarding":"0",
    "stop_code":8010,
    "stop_lon":-95.643769,
    "stop_id":"8010",
    "stop_url":"",
    "parent_station":"",
    "stop_desc":"",
    "stop_name":"SH 6 HWY @ PRESIDIO SQUARE BLVD",
    "location_type":"0",
    "zone_id":""
  },
  {
    "stop_lat":29.704798,
    "wheelchair_boarding":"0",
    "stop_code":7457,
    "stop_lon":-95.542665,
    "stop_id":"7457",
    "stop_url":"",
    "parent_station":"",
    "stop_desc":"",
    "stop_name":"BELLAIRE BLVD @ PELLA DR",
    "location_type":"0",
    "zone_id":""
  },
  {
    "stop_lat":29.704677,
    "wheelchair_boarding":"0",
    "stop_code":7454,
    "stop_lon":-95.551682,
    "stop_id":"7454",
    "stop_url":"",
    "parent_station":"",
    "stop_desc":"",
    "stop_name":"BELLAIRE BLVD @ CORPORATE DR",
    "location_type":"0",
    "zone_id":""
  },
  {
    "stop_lat":29.704738,
    "wheelchair_boarding":"0",
    "stop_code":7455,
    "stop_lon":-95.548141,
    "stop_id":"7455",
    "stop_url":"",
    "parent_station":"",
    "stop_desc":"",
    "stop_name":"BELLAIRE BLVD @ CORPORATE DR",
    "location_type":"0",
    "zone_id":""
  },
  {
    "stop_lat":29.704729,
    "wheelchair_boarding":"0",
    "stop_code":7452,
    "stop_lon":-95.555938,
    "stop_id":"7452",
    "stop_url":"",
    "parent_station":"",
    "stop_desc":"",
    "stop_name":"BELLAIRE BLVD @ SAM HOUSTON PKWY",
    "location_type":"0",
    "zone_id":""
  },
  {
    "stop_lat":29.74415,
    "wheelchair_boarding":"0",
    "stop_code":1221,
    "stop_lon":-95.332648,
    "stop_id":"1221",
    "stop_url":"",
    "parent_station":"",
    "stop_desc":"",
    "stop_name":"HARRISBURG BLVD @ EASTWOOD ST",
    "location_type":"0",
    "zone_id":""
  },
  {
    "stop_lat":29.705079,
    "wheelchair_boarding":"0",
    "stop_code":7450,
    "stop_lon":-95.547928,
    "stop_id":"7450",
    "stop_url":"",
    "parent_station":"",
    "stop_desc":"",
    "stop_name":"BELLAIRE BLVD @ KENDALIA DR",
    "location_type":"0",
    "zone_id":""
  },
  {
    "stop_lat":29.780104,
    "wheelchair_boarding":"0",
    "stop_code":2036,
    "stop_lon":-95.326515,
    "stop_id":"2036",
    "stop_url":"",
    "parent_station":"",
    "stop_desc":"",
    "stop_name":"WACO ST @ NOBLE ST",
    "location_type":"0",
    "zone_id":""
  },
  {
    "stop_lat":29.77816,
    "wheelchair_boarding":"0",
    "stop_code":2035,
    "stop_lon":-95.32648,
    "stop_id":"2035",
    "stop_url":"",
    "parent_station":"",
    "stop_desc":"",
    "stop_name":"WACO ST @ OATS ST",
    "location_type":"0",
    "zone_id":""
  },
  {
    "stop_lat":29.704813,
    "wheelchair_boarding":"0",
    "stop_code":7458,
    "stop_lon":-95.541238,
    "stop_id":"7458",
    "stop_url":"",
    "parent_station":"",
    "stop_desc":"",
    "stop_name":"BELLAIRE BLVD @ PELLA DR",
    "location_type":"0",
    "zone_id":""
  },
  {
    "stop_lat":29.77675,
    "wheelchair_boarding":"0",
    "stop_code":2034,
    "stop_lon":-95.32634,
    "stop_id":"2034",
    "stop_url":"",
    "parent_station":"",
    "stop_desc":"",
    "stop_name":"WACO ST @ NEW ORLEANS ST",
    "location_type":"0",
    "zone_id":""
  },
  {
    "stop_lat":29.776,
    "wheelchair_boarding":"0",
    "stop_code":2033,
    "stop_lon":-95.3263,
    "stop_id":"2033",
    "stop_url":"",
    "parent_station":"",
    "stop_desc":"",
    "stop_name":"WACO ST @ LYONS AVE",
    "location_type":"0",
    "zone_id":""
  },
  {
    "stop_lat":29.774083,
    "wheelchair_boarding":"0",
    "stop_code":2032,
    "stop_lon":-95.326301,
    "stop_id":"2032",
    "stop_url":"",
    "parent_station":"",
    "stop_desc":"",
    "stop_name":"WACO ST @ ORANGE",
    "location_type":"0",
    "zone_id":""
  },
  {
    "stop_lat":29.790941,
    "wheelchair_boarding":"0",
    "stop_code":90983,
    "stop_lon":-95.360818,
    "stop_id":"90983",
    "stop_url":"",
    "parent_station":"",
    "stop_desc":"FULTON ST & IRVINGTON BLVD",
    "stop_name":"FULTON & IRVINGTON",
    "location_type":"0",
    "zone_id":""
  },
  {
    "stop_lat":29.776986,
    "wheelchair_boarding":"0",
    "stop_code":2030,
    "stop_lon":-95.326622,
    "stop_id":"2030",
    "stop_url":"",
    "parent_station":"",
    "stop_desc":"",
    "stop_name":"WACO ST @ NEW ORLEANS ST",
    "location_type":"0",
    "zone_id":""
  },
  {
    "stop_lat":29.983191,
    "wheelchair_boarding":"0",
    "stop_code":10884,
    "stop_lon":-95.494769,
    "stop_id":"10884",
    "stop_url":"",
    "parent_station":"",
    "stop_desc":"VETERANS MEMORIAL DR & FOUNTAINHEAD DR",
    "stop_name":"VETERANS MEMORIAL DR @ FOUNTAINHEAD",
    "location_type":"0",
    "zone_id":""
  },
  {
    "stop_lat":29.972006,
    "wheelchair_boarding":"0",
    "stop_code":10881,
    "stop_lon":-95.486261,
    "stop_id":"10881",
    "stop_url":"",
    "parent_station":"",
    "stop_desc":"VETERANS MEMORIAL DR & SABLERIDGE DR",
    "stop_name":"VETERANS MEMORIAL DR @ SABLERIDGE D",
    "location_type":"0",
    "zone_id":""
  },
  {
    "stop_lat":29.97532,
    "wheelchair_boarding":"0",
    "stop_code":10882,
    "stop_lon":-95.488732,
    "stop_id":"10882",
    "stop_url":"",
    "parent_station":"",
    "stop_desc":"VETERANS MEMORIAL DR & TORREY FOREST DR",
    "stop_name":"VETERANS MEMORIAL DR @ TORREY FORES",
    "location_type":"0",
    "zone_id":""
  },
  {
    "stop_lat":29.979084,
    "wheelchair_boarding":"0",
    "stop_code":10883,
    "stop_lon":-95.491613,
    "stop_id":"10883",
    "stop_url":"",
    "parent_station":"",
    "stop_desc":"VETERANS MEMORIAL DR & BAMMEL NORTH HOUSTON RD",
    "stop_name":"VETERANS MEMORIAL DR @ BAMMEL NORTH",
    "location_type":"0",
    "zone_id":""
  },
  {
    "stop_lat":29.71666,
    "wheelchair_boarding":"0",
    "stop_code":4598,
    "stop_lon":-95.4277,
    "stop_id":"4598",
    "stop_url":"",
    "parent_station":"",
    "stop_desc":"",
    "stop_name":"BUFFALO SPEEDWAY   @ JARRARD",
    "location_type":"0",
    "zone_id":""
  },
  {
    "stop_lat":29.86345,
    "wheelchair_boarding":"0",
    "stop_code":8291,
    "stop_lon":-95.473565,
    "stop_id":"8291",
    "stop_url":"",
    "parent_station":"",
    "stop_desc":"",
    "stop_name":"ANTOINE DR @ LITTLE YORK RD",
    "location_type":"0",
    "zone_id":""
  },
  {
    "stop_lat":29.71648,
    "wheelchair_boarding":"0",
    "stop_code":4599,
    "stop_lon":-95.42754,
    "stop_id":"4599",
    "stop_url":"",
    "parent_station":"",
    "stop_desc":"",
    "stop_name":"BUFFALO SPEEDWAY   @ JARRARD",
    "location_type":"0",
    "zone_id":""
  },
  {
    "stop_lat":29.79034,
    "wheelchair_boarding":"0",
    "stop_code":2318,
    "stop_lon":-95.31031,
    "stop_id":"2318",
    "stop_url":"",
    "parent_station":"",
    "stop_desc":"",
    "stop_name":"LIBERTY RD @ DABNEY ST",
    "location_type":"0",
    "zone_id":""
  },
  {
    "stop_lat":29.867032,
    "wheelchair_boarding":"0",
    "stop_code":8290,
    "stop_lon":-95.472939,
    "stop_id":"8290",
    "stop_url":"",
    "parent_station":"",
    "stop_desc":"",
    "stop_name":"ANTOINE DR @ VICTORY DR",
    "location_type":"0",
    "zone_id":""
  },
  {
    "stop_lat":29.789616,
    "wheelchair_boarding":"0",
    "stop_code":2319,
    "stop_lon":-95.312012,
    "stop_id":"2319",
    "stop_url":"",
    "parent_station":"",
    "stop_desc":"",
    "stop_name":"LIBERTY RD @ EASY",
    "location_type":"0",
    "zone_id":""
  },
  {
    "stop_lat":29.87034,
    "wheelchair_boarding":"0",
    "stop_code":8293,
    "stop_lon":-95.46258,
    "stop_id":"8293",
    "stop_url":"",
    "parent_station":"",
    "stop_desc":"",
    "stop_name":"VICTORY DR @ ATHLONE DR",
    "location_type":"0",
    "zone_id":""
  },
  {
    "stop_lat":29.869642,
    "wheelchair_boarding":"0",
    "stop_code":8292,
    "stop_lon":-95.464752,
    "stop_id":"8292",
    "stop_url":"",
    "parent_station":"",
    "stop_desc":"",
    "stop_name":"VICTORY DR @ VOGEL RD",
    "location_type":"0",
    "zone_id":""
  },
  {
    "stop_lat":29.79167,
    "wheelchair_boarding":"0",
    "stop_code":2039,
    "stop_lon":-95.32749,
    "stop_id":"2039",
    "stop_url":"",
    "parent_station":"",
    "stop_desc":"",
    "stop_name":"BROYLES ST @ TIFFIN ST",
    "location_type":"0",
    "zone_id":""
  },
  {
    "stop_lat":29.791339,
    "wheelchair_boarding":"0",
    "stop_code":6532,
    "stop_lon":-95.446068,
    "stop_id":"6532",
    "stop_url":"",
    "parent_station":"",
    "stop_desc":"",
    "stop_name":"HEMPSTEAD RD @ 12TH ST",
    "location_type":"0",
    "zone_id":""
  },
  {
    "stop_lat":29.898368,
    "wheelchair_boarding":"0",
    "stop_code":4843,
    "stop_lon":-95.331123,
    "stop_id":"4843",
    "stop_url":"",
    "parent_station":"",
    "stop_desc":"",
    "stop_name":"GLOGER ST @ ORANGE GROVE DR",
    "location_type":"0",
    "zone_id":""
  },
  {
    "stop_lat":29.800996,
    "wheelchair_boarding":"0",
    "stop_code":2314,
    "stop_lon":-95.285454,
    "stop_id":"2314",
    "stop_url":"",
    "parent_station":"",
    "stop_desc":"",
    "stop_name":"LIBERTY RD @ HERSCHELL ST",
    "location_type":"0",
    "zone_id":""
  },
  {
    "stop_lat":29.79109,
    "wheelchair_boarding":"0",
    "stop_code":6533,
    "stop_lon":-95.446114,
    "stop_id":"6533",
    "stop_url":"",
    "parent_station":"",
    "stop_desc":"",
    "stop_name":"HEMPSTEAD RD @ 12TH ST",
    "location_type":"0",
    "zone_id":""
  },
  {
    "stop_lat":29.799689,
    "wheelchair_boarding":"0",
    "stop_code":2315,
    "stop_lon":-95.28851,
    "stop_id":"2315",
    "stop_url":"",
    "parent_station":"",
    "stop_desc":"",
    "stop_name":"LIBERTY RD @ WAYSIDE DR",
    "location_type":"0",
    "zone_id":""
  },
  {
    "stop_lat":29.86717,
    "wheelchair_boarding":"0",
    "stop_code":8296,
    "stop_lon":-95.45911,
    "stop_id":"8296",
    "stop_url":"",
    "parent_station":"",
    "stop_desc":"",
    "stop_name":"TC JESTER BLVD @ HOLDER FOREST DR",
    "location_type":"0",
    "zone_id":""
  },
  {
    "stop_lat":29.7648,
    "wheelchair_boarding":"0",
    "stop_code":393,
    "stop_lon":-95.33717,
    "stop_id":"393",
    "stop_url":"",
    "parent_station":"",
    "stop_desc":"",
    "stop_name":"CLINTON DR @ BAYOU ST",
    "location_type":"0",
    "zone_id":""
  },
  {
    "stop_lat":29.76545,
    "wheelchair_boarding":"0",
    "stop_code":390,
    "stop_lon":-95.33175,
    "stop_id":"390",
    "stop_url":"",
    "parent_station":"",
    "stop_desc":"",
    "stop_name":"CLINTON DR @ JUDD ST",
    "location_type":"0",
    "zone_id":""
  },
  {
    "stop_lat":29.745816,
    "wheelchair_boarding":"0",
    "stop_code":397,
    "stop_lon":-95.304628,
    "stop_id":"397",
    "stop_url":"",
    "parent_station":"",
    "stop_desc":"",
    "stop_name":"NAVIGATION BLVD @ CESAR CHAVEZ BLVD",
    "location_type":"0",
    "zone_id":""
  },
  {
    "stop_lat":29.745127,
    "wheelchair_boarding":"0",
    "stop_code":396,
    "stop_lon":-95.302735,
    "stop_id":"396",
    "stop_url":"",
    "parent_station":"",
    "stop_desc":"",
    "stop_name":"NAVIGATION BLVD @ WAYSIDE DR",
    "location_type":"0",
    "zone_id":""
  },
  {
    "stop_lat":29.74734,
    "wheelchair_boarding":"0",
    "stop_code":399,
    "stop_lon":-95.309281,
    "stop_id":"399",
    "stop_url":"",
    "parent_station":"",
    "stop_desc":"",
    "stop_name":"NAVIGATION BLVD @ TERMINAL ST",
    "location_type":"0",
    "zone_id":""
  },
  {
    "stop_lat":29.746683,
    "wheelchair_boarding":"0",
    "stop_code":398,
    "stop_lon":-95.307198,
    "stop_id":"398",
    "stop_url":"",
    "parent_station":"",
    "stop_desc":"",
    "stop_name":"NAVIGATION BLVD @ TERMINAL ST",
    "location_type":"0",
    "zone_id":""
  },
  {
    "stop_lat":29.79366,
    "wheelchair_boarding":"0",
    "stop_code":2309,
    "stop_lon":-95.30223,
    "stop_id":"2309",
    "stop_url":"",
    "parent_station":"",
    "stop_desc":"",
    "stop_name":"LIBERTY RD @ HOMESTEAD RD",
    "location_type":"0",
    "zone_id":""
  },
  {
    "stop_lat":29.792067,
    "wheelchair_boarding":"0",
    "stop_code":2308,
    "stop_lon":-95.305997,
    "stop_id":"2308",
    "stop_url":"",
    "parent_station":"",
    "stop_desc":"",
    "stop_name":"LIBERTY RD @ MAJESTIC ST",
    "location_type":"0",
    "zone_id":""
  },
  {
    "stop_lat":29.60052,
    "wheelchair_boarding":"0",
    "stop_code":4729,
    "stop_lon":-95.48221,
    "stop_id":"4729",
    "stop_url":"",
    "parent_station":"",
    "stop_desc":"",
    "stop_name":"FUQUA ST @ RIDGECREEK DR",
    "location_type":"0",
    "zone_id":""
  },
  {
    "stop_lat":29.59968,
    "wheelchair_boarding":"0",
    "stop_code":4728,
    "stop_lon":-95.48349,
    "stop_id":"4728",
    "stop_url":"",
    "parent_station":"",
    "stop_desc":"",
    "stop_name":"FUQUA ST @ CHIMNEY ROCK RD",
    "location_type":"0",
    "zone_id":""
  },
  {
    "stop_lat":29.598754,
    "wheelchair_boarding":"0",
    "stop_code":4725,
    "stop_lon":-95.496238,
    "stop_id":"4725",
    "stop_url":"",
    "parent_station":"",
    "stop_desc":"",
    "stop_name":"FUQUA ST @ RUPPSTOCK RD",
    "location_type":"0",
    "zone_id":""
  },
  {
    "stop_lat":29.78759,
    "wheelchair_boarding":"0",
    "stop_code":2300,
    "stop_lon":-95.32409,
    "stop_id":"2300",
    "stop_url":"",
    "parent_station":"",
    "stop_desc":"",
    "stop_name":"LIBERTY RD @ KASHMERE ST",
    "location_type":"0",
    "zone_id":""
  },
  {
    "stop_lat":29.5989,
    "wheelchair_boarding":"0",
    "stop_code":4727,
    "stop_lon":-95.48689,
    "stop_id":"4727",
    "stop_url":"",
    "parent_station":"",
    "stop_desc":"",
    "stop_name":"FUQUA ST @ RIDGEROCK RD",
    "location_type":"0",
    "zone_id":""
  },
  {
    "stop_lat":29.598804,
    "wheelchair_boarding":"0",
    "stop_code":4726,
    "stop_lon":-95.493206,
    "stop_id":"4726",
    "stop_url":"",
    "parent_station":"",
    "stop_desc":"",
    "stop_name":"FUQUA ST @ BLUE RIDGE RD",
    "location_type":"0",
    "zone_id":""
  },
  {
    "stop_lat":29.629714,
    "wheelchair_boarding":"0",
    "stop_code":4721,
    "stop_lon":-95.507578,
    "stop_id":"4721",
    "stop_url":"",
    "parent_station":"",
    "stop_desc":"",
    "stop_name":"FONDREN RD @ MAIN ST",
    "location_type":"0",
    "zone_id":""
  },
  {
    "stop_lat":29.629635,
    "wheelchair_boarding":"0",
    "stop_code":4720,
    "stop_lon":-95.507288,
    "stop_id":"4720",
    "stop_url":"",
    "parent_station":"",
    "stop_desc":"",
    "stop_name":"FONDREN RD @ MAIN ST",
    "location_type":"0",
    "zone_id":""
  },
  {
    "stop_lat":29.79122,
    "wheelchair_boarding":"0",
    "stop_code":2307,
    "stop_lon":-95.30797,
    "stop_id":"2307",
    "stop_url":"",
    "parent_station":"",
    "stop_desc":"",
    "stop_name":"LIBERTY RD @ ENGLEWOOD",
    "location_type":"0",
    "zone_id":""
  },
  {
    "stop_lat":29.79014,
    "wheelchair_boarding":"0",
    "stop_code":2306,
    "stop_lon":-95.31055,
    "stop_id":"2306",
    "stop_url":"",
    "parent_station":"",
    "stop_desc":"",
    "stop_name":"LIBERTY RD @ DABNEY ST",
    "location_type":"0",
    "zone_id":""
  },
  {
    "stop_lat":29.873656,
    "wheelchair_boarding":"0",
    "stop_code":5847,
    "stop_lon":-95.397926,
    "stop_id":"5847",
    "stop_url":"",
    "parent_station":"",
    "stop_desc":"",
    "stop_name":"NORTHLINE DR @ SCHADE LN",
    "location_type":"0",
    "zone_id":""
  },
  {
    "stop_lat":29.875438,
    "wheelchair_boarding":"0",
    "stop_code":5846,
    "stop_lon":-95.398109,
    "stop_id":"5846",
    "stop_url":"",
    "parent_station":"",
    "stop_desc":"",
    "stop_name":"CANINO RD @ NORTHLINE DR",
    "location_type":"0",
    "zone_id":""
  },
  {
    "stop_lat":29.875415,
    "wheelchair_boarding":"0",
    "stop_code":5845,
    "stop_lon":-95.401642,
    "stop_id":"5845",
    "stop_url":"",
    "parent_station":"",
    "stop_desc":"",
    "stop_name":"CANINO RD @ MEADOWMOOR DR",
    "location_type":"0",
    "zone_id":""
  },
  {
    "stop_lat":29.875543,
    "wheelchair_boarding":"0",
    "stop_code":5844,
    "stop_lon":-95.405197,
    "stop_id":"5844",
    "stop_url":"",
    "parent_station":"",
    "stop_desc":"",
    "stop_name":"BERWYN DR @ CANINO RD",
    "location_type":"0",
    "zone_id":""
  },
  {
    "stop_lat":29.878097,
    "wheelchair_boarding":"0",
    "stop_code":5843,
    "stop_lon":-95.405212,
    "stop_id":"5843",
    "stop_url":"",
    "parent_station":"",
    "stop_desc":"",
    "stop_name":"BERWYN DR @ CARBY RD",
    "location_type":"0",
    "zone_id":""
  },
  {
    "stop_lat":29.88062,
    "wheelchair_boarding":"0",
    "stop_code":5842,
    "stop_lon":-95.405746,
    "stop_id":"5842",
    "stop_url":"",
    "parent_station":"",
    "stop_desc":"",
    "stop_name":"BERWYN DR @ NELLIS RD",
    "location_type":"0",
    "zone_id":""
  },
  {
    "stop_lat":29.884301,
    "wheelchair_boarding":"0",
    "stop_code":5841,
    "stop_lon":-95.406426,
    "stop_id":"5841",
    "stop_url":"",
    "parent_station":"",
    "stop_desc":"",
    "stop_name":"SMART   @ BERWYN DR",
    "location_type":"0",
    "zone_id":""
  },
  {
    "stop_lat":29.884309,
    "wheelchair_boarding":"0",
    "stop_code":5840,
    "stop_lon":-95.408081,
    "stop_id":"5840",
    "stop_url":"",
    "parent_station":"",
    "stop_desc":"",
    "stop_name":"SMART   @ SWEETWATER LN",
    "location_type":"0",
    "zone_id":""
  },
  {
    "stop_lat":29.902475,
    "wheelchair_boarding":"0",
    "stop_code":11281,
    "stop_lon":-95.343958,
    "stop_id":"11281",
    "stop_url":"",
    "parent_station":"",
    "stop_desc":"",
    "stop_name":"ALDINE MAIL ROUTE RD @ DEERGROVE ST",
    "location_type":"0",
    "zone_id":""
  },
  {
    "stop_lat":29.902525,
    "wheelchair_boarding":"0",
    "stop_code":11280,
    "stop_lon":-95.339583,
    "stop_id":"11280",
    "stop_url":"",
    "parent_station":"",
    "stop_desc":"ALDINE MAIL ROUTE RD & FALL MEADOW LN",
    "stop_name":"ALDINE MAIL ROUTE RD @ FALL MEADOW",
    "location_type":"0",
    "zone_id":""
  },
  {
    "stop_lat":29.902432,
    "wheelchair_boarding":"0",
    "stop_code":11283,
    "stop_lon":-95.351425,
    "stop_id":"11283",
    "stop_url":"",
    "parent_station":"",
    "stop_desc":"",
    "stop_name":"ALDINE MAIL ROUTE RD @ RUSS DR",
    "location_type":"0",
    "zone_id":""
  },
  {
    "stop_lat":29.902456,
    "wheelchair_boarding":"0",
    "stop_code":11282,
    "stop_lon":-95.348118,
    "stop_id":"11282",
    "stop_url":"",
    "parent_station":"",
    "stop_desc":"",
    "stop_name":"ALDINE MAIL ROUTE RD @ RUSS DR",
    "location_type":"0",
    "zone_id":""
  },
  {
    "stop_lat":29.902131,
    "wheelchair_boarding":"0",
    "stop_code":11285,
    "stop_lon":-95.389211,
    "stop_id":"11285",
    "stop_url":"",
    "parent_station":"",
    "stop_desc":"",
    "stop_name":"ALDINE MAIL ROUTE RD @ BURTCLIFF ST",
    "location_type":"0",
    "zone_id":""
  },
  {
    "stop_lat":29.902403,
    "wheelchair_boarding":"0",
    "stop_code":11284,
    "stop_lon":-95.354902,
    "stop_id":"11284",
    "stop_url":"",
    "parent_station":"",
    "stop_desc":"ALDINE MAIL ROUTE RD & ALDINE WESTFIELD RD",
    "stop_name":"ALDINE MAIL ROUTE RD @ ALDINE WESTF",
    "location_type":"0",
    "zone_id":""
  },
  {
    "stop_lat":29.870095,
    "wheelchair_boarding":"0",
    "stop_code":5849,
    "stop_lon":-95.397971,
    "stop_id":"5849",
    "stop_url":"",
    "parent_station":"",
    "stop_desc":"",
    "stop_name":"NORTHLINE DR @ LITTLE YORK RD",
    "location_type":"0",
    "zone_id":""
  },
  {
    "stop_lat":29.87203,
    "wheelchair_boarding":"0",
    "stop_code":5848,
    "stop_lon":-95.397919,
    "stop_id":"5848",
    "stop_url":"",
    "parent_station":"",
    "stop_desc":"",
    "stop_name":"NORTHLINE DR @ ARNETT LN",
    "location_type":"0",
    "zone_id":""
  },
  {
    "stop_lat":29.800506,
    "wheelchair_boarding":"0",
    "stop_code":3748,
    "stop_lon":-95.342141,
    "stop_id":"3748",
    "stop_url":"",
    "parent_station":"",
    "stop_desc":"",
    "stop_name":"JENSEN DR @ BAY ST",
    "location_type":"0",
    "zone_id":""
  },
  {
    "stop_lat":29.80175,
    "wheelchair_boarding":"0",
    "stop_code":3749,
    "stop_lon":-95.34209,
    "stop_id":"3749",
    "stop_url":"",
    "parent_station":"",
    "stop_desc":"",
    "stop_name":"JENSEN DR @ CAVALCADE ST",
    "location_type":"0",
    "zone_id":""
  },
  {
    "stop_lat":29.793332,
    "wheelchair_boarding":"0",
    "stop_code":3746,
    "stop_lon":-95.342026,
    "stop_id":"3746",
    "stop_url":"",
    "parent_station":"",
    "stop_desc":"",
    "stop_name":"JENSEN DR @ COLLINGSWORTH ST",
    "location_type":"0",
    "zone_id":""
  },
  {
    "stop_lat":29.796473,
    "wheelchair_boarding":"0",
    "stop_code":3747,
    "stop_lon":-95.342079,
    "stop_id":"3747",
    "stop_url":"",
    "parent_station":"",
    "stop_desc":"",
    "stop_name":"JENSEN DR @ CRANE ST",
    "location_type":"0",
    "zone_id":""
  },
  {
    "stop_lat":29.789781,
    "wheelchair_boarding":"0",
    "stop_code":3744,
    "stop_lon":-95.341942,
    "stop_id":"3744",
    "stop_url":"",
    "parent_station":"",
    "stop_desc":"",
    "stop_name":"JENSEN DR @ JEWEL ST",
    "location_type":"0",
    "zone_id":""
  },
  {
    "stop_lat":29.791215,
    "wheelchair_boarding":"0",
    "stop_code":3745,
    "stop_lon":-95.341964,
    "stop_id":"3745",
    "stop_url":"",
    "parent_station":"",
    "stop_desc":"",
    "stop_name":"JENSEN DR @ EVELLA",
    "location_type":"0",
    "zone_id":""
  },
  {
    "stop_lat":29.785421,
    "wheelchair_boarding":"0",
    "stop_code":3742,
    "stop_lon":-95.341873,
    "stop_id":"3742",
    "stop_url":"",
    "parent_station":"",
    "stop_desc":"",
    "stop_name":"JENSEN DR @ NEWHOFF ST",
    "location_type":"0",
    "zone_id":""
  },
  {
    "stop_lat":29.787375,
    "wheelchair_boarding":"0",
    "stop_code":3743,
    "stop_lon":-95.341911,
    "stop_id":"3743",
    "stop_url":"",
    "parent_station":"",
    "stop_desc":"",
    "stop_name":"JENSEN DR @ FLORIDA",
    "location_type":"0",
    "zone_id":""
  },
  {
    "stop_lat":29.781802,
    "wheelchair_boarding":"0",
    "stop_code":3740,
    "stop_lon":-95.341827,
    "stop_id":"3740",
    "stop_url":"",
    "parent_station":"",
    "stop_desc":"",
    "stop_name":"JENSEN DR @ LEE ST",
    "location_type":"0",
    "zone_id":""
  },
  {
    "stop_lat":29.78332,
    "wheelchair_boarding":"0",
    "stop_code":3741,
    "stop_lon":-95.341862,
    "stop_id":"3741",
    "stop_url":"",
    "parent_station":"",
    "stop_desc":"",
    "stop_name":"JENSEN DR @ QUITMAN ST",
    "location_type":"0",
    "zone_id":""
  },
  {
    "stop_lat":29.837285,
    "wheelchair_boarding":"0",
    "stop_code":4620,
    "stop_lon":-95.383629,
    "stop_id":"4620",
    "stop_url":"",
    "parent_station":"",
    "stop_desc":"",
    "stop_name":"BERRY RD @ AIRLINE DR",
    "location_type":"0",
    "zone_id":""
  },
  {
    "stop_lat":29.85676,
    "wheelchair_boarding":"0",
    "stop_code":4621,
    "stop_lon":-95.37202,
    "stop_id":"4621",
    "stop_url":"",
    "parent_station":"",
    "stop_desc":"",
    "stop_name":"BAUMAN RD @ SUNNYSIDE ST",
    "location_type":"0",
    "zone_id":""
  },
  {
    "stop_lat":29.85477,
    "wheelchair_boarding":"0",
    "stop_code":4622,
    "stop_lon":-95.37198,
    "stop_id":"4622",
    "stop_url":"",
    "parent_station":"",
    "stop_desc":"",
    "stop_name":"BAUMAN RD @ ROBMORE ST",
    "location_type":"0",
    "zone_id":""
  },
  {
    "stop_lat":29.853018,
    "wheelchair_boarding":"0",
    "stop_code":4623,
    "stop_lon":-95.371964,
    "stop_id":"4623",
    "stop_url":"",
    "parent_station":"",
    "stop_desc":"",
    "stop_name":"BAUMAN RD @ HARKNESS ST",
    "location_type":"0",
    "zone_id":""
  },
  {
    "stop_lat":29.834674,
    "wheelchair_boarding":"0",
    "stop_code":4625,
    "stop_lon":-95.371594,
    "stop_id":"4625",
    "stop_url":"",
    "parent_station":"",
    "stop_desc":"",
    "stop_name":"BAUMAN RD @ JULIA ST",
    "location_type":"0",
    "zone_id":""
  },
  {
    "stop_lat":29.827248,
    "wheelchair_boarding":"0",
    "stop_code":4626,
    "stop_lon":-95.371498,
    "stop_id":"4626",
    "stop_url":"",
    "parent_station":"",
    "stop_desc":"",
    "stop_name":"BAUMAN RD @ WEISENBERGER",
    "location_type":"0",
    "zone_id":""
  },
  {
    "stop_lat":29.826168,
    "wheelchair_boarding":"0",
    "stop_code":4627,
    "stop_lon":-95.371452,
    "stop_id":"4627",
    "stop_url":"",
    "parent_station":"",
    "stop_desc":"",
    "stop_name":"BAUMAN RD @ NEYLAND ST",
    "location_type":"0",
    "zone_id":""
  },
  {
    "stop_lat":29.824581,
    "wheelchair_boarding":"0",
    "stop_code":4628,
    "stop_lon":-95.371445,
    "stop_id":"4628",
    "stop_url":"",
    "parent_station":"",
    "stop_desc":"",
    "stop_name":"BAUMAN RD @ BASSWOOD",
    "location_type":"0",
    "zone_id":""
  },
  {
    "stop_lat":29.82388,
    "wheelchair_boarding":"0",
    "stop_code":4629,
    "stop_lon":-95.371186,
    "stop_id":"4629",
    "stop_url":"",
    "parent_station":"",
    "stop_desc":"",
    "stop_name":"PLYMOUTH ST @ BAUMAN RD",
    "location_type":"0",
    "zone_id":""
  },
  {
    "stop_lat":29.758359,
    "wheelchair_boarding":"0",
    "stop_code":11757,
    "stop_lon":-95.486043,
    "stop_id":"11757",
    "stop_url":"",
    "parent_station":"",
    "stop_desc":"",
    "stop_name":"FOUNTAINVIEW DR @ WOODWAY DR",
    "location_type":"0",
    "zone_id":""
  },
  {
    "stop_lat":29.756457,
    "wheelchair_boarding":"0",
    "stop_code":11756,
    "stop_lon":-95.485793,
    "stop_id":"11756",
    "stop_url":"",
    "parent_station":"",
    "stop_desc":"",
    "stop_name":"FOUNTAINVIEW DR @ SUGAR HILL DR",
    "location_type":"0",
    "zone_id":""
  },
  {
    "stop_lat":29.753588,
    "wheelchair_boarding":"0",
    "stop_code":11755,
    "stop_lon":-95.485741,
    "stop_id":"11755",
    "stop_url":"",
    "parent_station":"",
    "stop_desc":"",
    "stop_name":"FOUNTAINVIEW DR @ VALLEY FORGE DR",
    "location_type":"0",
    "zone_id":""
  },
  {
    "stop_lat":29.749084,
    "wheelchair_boarding":"0",
    "stop_code":11754,
    "stop_lon":-95.486132,
    "stop_id":"11754",
    "stop_url":"",
    "parent_station":"",
    "stop_desc":"",
    "stop_name":"FOUNTAINVIEW DR @ SAN FELIPE DR",
    "location_type":"0",
    "zone_id":""
  },
  {
    "stop_lat":29.749711,
    "wheelchair_boarding":"0",
    "stop_code":11753,
    "stop_lon":-95.485932,
    "stop_id":"11753",
    "stop_url":"",
    "parent_station":"",
    "stop_desc":"",
    "stop_name":"FOUNTAINVIEW DR @ SAN FELIPE DR",
    "location_type":"0",
    "zone_id":""
  },
  {
    "stop_lat":29.746171,
    "wheelchair_boarding":"0",
    "stop_code":11752,
    "stop_lon":-95.485605,
    "stop_id":"11752",
    "stop_url":"",
    "parent_station":"",
    "stop_desc":"",
    "stop_name":"FOUNTAINVIEW DR @ INWOOD DR",
    "location_type":"0",
    "zone_id":""
  },
  {
    "stop_lat":29.745879,
    "wheelchair_boarding":"0",
    "stop_code":11751,
    "stop_lon":-95.485389,
    "stop_id":"11751",
    "stop_url":"",
    "parent_station":"",
    "stop_desc":"",
    "stop_name":"FOUNTAINVIEW DR @ INWOOD DR",
    "location_type":"0",
    "zone_id":""
  },
  {
    "stop_lat":29.693119,
    "wheelchair_boarding":"0",
    "stop_code":11998,
    "stop_lon":-95.635058,
    "stop_id":"11998",
    "stop_url":"",
    "parent_station":"",
    "stop_desc":"PAVILION POINT & SUGAR LAND HOWELL RD",
    "stop_name":"PAVILION POINT @ SUGAR LAND HOWELL",
    "location_type":"0",
    "zone_id":""
  },
  {
    "stop_lat":29.754761,
    "wheelchair_boarding":"0",
    "stop_code":11759,
    "stop_lon":-95.482782,
    "stop_id":"11759",
    "stop_url":"",
    "parent_station":"",
    "stop_desc":"",
    "stop_name":"AUGUSTA DR @ CADER CREEK DR",
    "location_type":"0",
    "zone_id":""
  },
  {
    "stop_lat":29.756942,
    "wheelchair_boarding":"0",
    "stop_code":11758,
    "stop_lon":-95.482787,
    "stop_id":"11758",
    "stop_url":"",
    "parent_station":"",
    "stop_desc":"",
    "stop_name":"AUGUSTA DR @ SUGAR HILL DR",
    "location_type":"0",
    "zone_id":""
  },
  {
    "stop_lat":29.675476,
    "wheelchair_boarding":"0",
    "stop_code":6269,
    "stop_lon":-95.50901,
    "stop_id":"6269",
    "stop_url":"",
    "parent_station":"",
    "stop_desc":"",
    "stop_name":"BRAESWOOD BLVD @ FONDREN RD",
    "location_type":"0",
    "zone_id":""
  },
  {
    "stop_lat":29.75746,
    "wheelchair_boarding":"0",
    "stop_code":179,
    "stop_lon":-95.27277,
    "stop_id":"179",
    "stop_url":"",
    "parent_station":"",
    "stop_desc":"",
    "stop_name":"GELLHORN DR @ BUCROFT",
    "location_type":"0",
    "zone_id":""
  },
  {
    "stop_lat":29.759867,
    "wheelchair_boarding":"0",
    "stop_code":178,
    "stop_lon":-95.272849,
    "stop_id":"178",
    "stop_url":"",
    "parent_station":"",
    "stop_desc":"",
    "stop_name":"GELLHORN DR @ GUINEVERE ST",
    "location_type":"0",
    "zone_id":""
  },
  {
    "stop_lat":29.76043,
    "wheelchair_boarding":"0",
    "stop_code":177,
    "stop_lon":-95.27004,
    "stop_id":"177",
    "stop_url":"",
    "parent_station":"",
    "stop_desc":"",
    "stop_name":"LEDWICKE   @ GUINEVERE ST",
    "location_type":"0",
    "zone_id":""
  },
  {
    "stop_lat":29.76193,
    "wheelchair_boarding":"0",
    "stop_code":176,
    "stop_lon":-95.2701,
    "stop_id":"176",
    "stop_url":"",
    "parent_station":"",
    "stop_desc":"",
    "stop_name":"LEDWICKE   @ FLOSSIE MAE",
    "location_type":"0",
    "zone_id":""
  },
  {
    "stop_lat":29.7634,
    "wheelchair_boarding":"0",
    "stop_code":175,
    "stop_lon":-95.270134,
    "stop_id":"175",
    "stop_url":"",
    "parent_station":"",
    "stop_desc":"",
    "stop_name":"LEDWICKE   @ PATTIBOB",
    "location_type":"0",
    "zone_id":""
  },
  {
    "stop_lat":29.765512,
    "wheelchair_boarding":"0",
    "stop_code":174,
    "stop_lon":-95.270416,
    "stop_id":"174",
    "stop_url":"",
    "parent_station":"",
    "stop_desc":"",
    "stop_name":"TILGHAM ST @ LEDWICKE",
    "location_type":"0",
    "zone_id":""
  },
  {
    "stop_lat":29.76584,
    "wheelchair_boarding":"0",
    "stop_code":173,
    "stop_lon":-95.27291,
    "stop_id":"173",
    "stop_url":"",
    "parent_station":"",
    "stop_desc":"",
    "stop_name":"TILGHAM ST @ GELLHORN DR",
    "location_type":"0",
    "zone_id":""
  },
  {
    "stop_lat":29.76623,
    "wheelchair_boarding":"0",
    "stop_code":172,
    "stop_lon":-95.27605,
    "stop_id":"172",
    "stop_url":"",
    "parent_station":"",
    "stop_desc":"",
    "stop_name":"PLEASANTVILLE DR @ TILGHAM ST",
    "location_type":"0",
    "zone_id":""
  },
  {
    "stop_lat":29.76942,
    "wheelchair_boarding":"0",
    "stop_code":171,
    "stop_lon":-95.2769,
    "stop_id":"171",
    "stop_url":"",
    "parent_station":"",
    "stop_desc":"",
    "stop_name":"PLEASANTVILLE DR @ MARKET ST",
    "location_type":"0",
    "zone_id":""
  },
  {
    "stop_lat":29.770781,
    "wheelchair_boarding":"0",
    "stop_code":170,
    "stop_lon":-95.27761,
    "stop_id":"170",
    "stop_url":"",
    "parent_station":"",
    "stop_desc":"",
    "stop_name":"PLEASANTVILLE DR @ MARKET ST",
    "location_type":"0",
    "zone_id":""
  },
  {
    "stop_lat":29.674206,
    "wheelchair_boarding":"0",
    "stop_code":10469,
    "stop_lon":-95.55129,
    "stop_id":"10469",
    "stop_url":"",
    "parent_station":"",
    "stop_desc":"",
    "stop_name":"CENTRE PKWY @ BISSONNET ST",
    "location_type":"0",
    "zone_id":""
  },
  {
    "stop_lat":29.685045,
    "wheelchair_boarding":"0",
    "stop_code":10390,
    "stop_lon":-95.371686,
    "stop_id":"10390",
    "stop_url":"",
    "parent_station":"",
    "stop_desc":"",
    "stop_name":"TIERWESTER ST @ MAINER ST",
    "location_type":"0",
    "zone_id":""
  },
  {
    "stop_lat":29.683678,
    "wheelchair_boarding":"0",
    "stop_code":10391,
    "stop_lon":-95.372204,
    "stop_id":"10391",
    "stop_url":"",
    "parent_station":"",
    "stop_desc":"",
    "stop_name":"TIERWESTER ST @ GOODHOPE ST",
    "location_type":"0",
    "zone_id":""
  },
  {
    "stop_lat":29.682535,
    "wheelchair_boarding":"0",
    "stop_code":10392,
    "stop_lon":-95.372714,
    "stop_id":"10392",
    "stop_url":"",
    "parent_station":"",
    "stop_desc":"",
    "stop_name":"TIERWESTER ST @ BACON ST",
    "location_type":"0",
    "zone_id":""
  },
  {
    "stop_lat":29.683296,
    "wheelchair_boarding":"0",
    "stop_code":10393,
    "stop_lon":-95.375681,
    "stop_id":"10393",
    "stop_url":"",
    "parent_station":"",
    "stop_desc":"",
    "stop_name":"BACON ST @ SPRINGHILL ST",
    "location_type":"0",
    "zone_id":""
  },
  {
    "stop_lat":29.753065,
    "wheelchair_boarding":"0",
    "stop_code":10397,
    "stop_lon":-95.402404,
    "stop_id":"10397",
    "stop_url":"",
    "parent_station":"",
    "stop_desc":"",
    "stop_name":"GRAY ST @ DUNLAVY ST",
    "location_type":"0",
    "zone_id":""
  },
  {
    "stop_lat":29.735012,
    "wheelchair_boarding":"0",
    "stop_code":1113,
    "stop_lon":-95.334274,
    "stop_id":"1113",
    "stop_url":"",
    "parent_station":"",
    "stop_desc":"",
    "stop_name":"ERNESTINE ST @ PEASE ST",
    "location_type":"0",
    "zone_id":""
  },
  {
    "stop_lat":29.82939,
    "wheelchair_boarding":"0",
    "stop_code":7218,
    "stop_lon":-95.44476,
    "stop_id":"7218",
    "stop_url":"",
    "parent_station":"",
    "stop_desc":"",
    "stop_name":"ROSSLYN RD @ CHESHIRE LN",
    "location_type":"0",
    "zone_id":""
  },
  {
    "stop_lat":29.827374,
    "wheelchair_boarding":"0",
    "stop_code":7219,
    "stop_lon":-95.44472,
    "stop_id":"7219",
    "stop_url":"",
    "parent_station":"",
    "stop_desc":"",
    "stop_name":"ROSSLYN RD @ SAXON DR",
    "location_type":"0",
    "zone_id":""
  },
  {
    "stop_lat":29.731104,
    "wheelchair_boarding":"0",
    "stop_code":7212,
    "stop_lon":-95.466731,
    "stop_id":"7212",
    "stop_url":"",
    "parent_station":"",
    "stop_desc":"",
    "stop_name":"SAGE RD @ RICHMOND AVE",
    "location_type":"0",
    "zone_id":""
  },
  {
    "stop_lat":29.728062,
    "wheelchair_boarding":"0",
    "stop_code":7213,
    "stop_lon":-95.467607,
    "stop_id":"7213",
    "stop_url":"",
    "parent_station":"",
    "stop_desc":"",
    "stop_name":"SAGE RD @ RICE AVE",
    "location_type":"0",
    "zone_id":""
  },
  {
    "stop_lat":29.813893,
    "wheelchair_boarding":"0",
    "stop_code":7214,
    "stop_lon":-95.399345,
    "stop_id":"7214",
    "stop_url":"",
    "parent_station":"",
    "stop_desc":"",
    "stop_name":"YALE ST @ 30TH ST",
    "location_type":"0",
    "zone_id":""
  },
  {
    "stop_lat":29.815732,
    "wheelchair_boarding":"0",
    "stop_code":7215,
    "stop_lon":-95.399376,
    "stop_id":"7215",
    "stop_url":"",
    "parent_station":"",
    "stop_desc":"",
    "stop_name":"YALE ST @ 32ND ST",
    "location_type":"0",
    "zone_id":""
  },
  {
    "stop_lat":29.8324,
    "wheelchair_boarding":"0",
    "stop_code":7216,
    "stop_lon":-95.4449,
    "stop_id":"7216",
    "stop_url":"",
    "parent_station":"",
    "stop_desc":"",
    "stop_name":"ROSSLYN RD @ 43RD ST",
    "location_type":"0",
    "zone_id":""
  },
  {
    "stop_lat":29.83102,
    "wheelchair_boarding":"0",
    "stop_code":7217,
    "stop_lon":-95.44481,
    "stop_id":"7217",
    "stop_url":"",
    "parent_station":"",
    "stop_desc":"",
    "stop_name":"ROSSLYN RD @ LIBBEY DR",
    "location_type":"0",
    "zone_id":""
  },
  {
    "stop_lat":29.796298,
    "wheelchair_boarding":"0",
    "stop_code":6217,
    "stop_lon":-95.398005,
    "stop_id":"6217",
    "stop_url":"",
    "parent_station":"",
    "stop_desc":"",
    "stop_name":"HEIGHTS BLVD @ 14TH ST",
    "location_type":"0",
    "zone_id":""
  },
  {
    "stop_lat":29.798162,
    "wheelchair_boarding":"0",
    "stop_code":6216,
    "stop_lon":-95.39805,
    "stop_id":"6216",
    "stop_url":"",
    "parent_station":"",
    "stop_desc":"",
    "stop_name":"HEIGHTS BLVD @ 15TH ST",
    "location_type":"0",
    "zone_id":""
  },
  {
    "stop_lat":29.799967,
    "wheelchair_boarding":"0",
    "stop_code":6215,
    "stop_lon":-95.398066,
    "stop_id":"6215",
    "stop_url":"",
    "parent_station":"",
    "stop_desc":"",
    "stop_name":"HEIGHTS BLVD @ 16TH ST",
    "location_type":"0",
    "zone_id":""
  },
  {
    "stop_lat":29.801044,
    "wheelchair_boarding":"0",
    "stop_code":6214,
    "stop_lon":-95.398081,
    "stop_id":"6214",
    "stop_url":"",
    "parent_station":"",
    "stop_desc":"",
    "stop_name":"HEIGHTS BLVD @ 17TH ST",
    "location_type":"0",
    "zone_id":""
  },
  {
    "stop_lat":29.80187,
    "wheelchair_boarding":"0",
    "stop_code":6213,
    "stop_lon":-95.39772,
    "stop_id":"6213",
    "stop_url":"",
    "parent_station":"",
    "stop_desc":"",
    "stop_name":"HEIGHTS BLVD @ 18TH ST",
    "location_type":"0",
    "zone_id":""
  },
  {
    "stop_lat":29.79981,
    "wheelchair_boarding":"0",
    "stop_code":6212,
    "stop_lon":-95.39768,
    "stop_id":"6212",
    "stop_url":"",
    "parent_station":"",
    "stop_desc":"",
    "stop_name":"HEIGHTS BLVD @ 16TH ST",
    "location_type":"0",
    "zone_id":""
  },
  {
    "stop_lat":29.79799,
    "wheelchair_boarding":"0",
    "stop_code":6211,
    "stop_lon":-95.39765,
    "stop_id":"6211",
    "stop_url":"",
    "parent_station":"",
    "stop_desc":"",
    "stop_name":"HEIGHTS BLVD @ 15TH ST",
    "location_type":"0",
    "zone_id":""
  },
  {
    "stop_lat":29.79611,
    "wheelchair_boarding":"0",
    "stop_code":6210,
    "stop_lon":-95.3976,
    "stop_id":"6210",
    "stop_url":"",
    "parent_station":"",
    "stop_desc":"",
    "stop_name":"HEIGHTS BLVD @ 14TH ST",
    "location_type":"0",
    "zone_id":""
  },
  {
    "stop_lat":29.79259,
    "wheelchair_boarding":"0",
    "stop_code":6219,
    "stop_lon":-95.397921,
    "stop_id":"6219",
    "stop_url":"",
    "parent_station":"",
    "stop_desc":"",
    "stop_name":"HEIGHTS BLVD @ 12TH ST",
    "location_type":"0",
    "zone_id":""
  },
  {
    "stop_lat":29.794492,
    "wheelchair_boarding":"0",
    "stop_code":6218,
    "stop_lon":-95.397951,
    "stop_id":"6218",
    "stop_url":"",
    "parent_station":"",
    "stop_desc":"",
    "stop_name":"HEIGHTS BLVD @ 13TH ST",
    "location_type":"0",
    "zone_id":""
  },
  {
    "stop_lat":29.96669,
    "wheelchair_boarding":"0",
    "stop_code":6819,
    "stop_lon":-95.53658,
    "stop_id":"6819",
    "stop_url":"",
    "parent_station":"",
    "stop_desc":"",
    "stop_name":"FM 1960 RD @ WILLOW CENTRE DR",
    "location_type":"0",
    "zone_id":""
  },
  {
    "stop_lat":29.936826,
    "wheelchair_boarding":"0",
    "stop_code":6818,
    "stop_lon":-95.516876,
    "stop_id":"6818",
    "stop_url":"",
    "parent_station":"",
    "stop_desc":"",
    "stop_name":"SH 249 HWY @ N SAM HOUSTON PKWY W",
    "location_type":"0",
    "zone_id":""
  },
  {
    "stop_lat":29.676442,
    "wheelchair_boarding":"0",
    "stop_code":90107,
    "stop_lon":-95.266695,
    "stop_id":"90107",
    "stop_url":"",
    "parent_station":"",
    "stop_desc":"WINKLER DR & BARKLEY DR",
    "stop_name":"HOWARD & WINKLER",
    "location_type":"0",
    "zone_id":""
  },
  {
    "stop_lat":29.676641,
    "wheelchair_boarding":"0",
    "stop_code":90106,
    "stop_lon":-95.266654,
    "stop_id":"90106",
    "stop_url":"",
    "parent_station":"",
    "stop_desc":"WINKLER DR & WIER DR",
    "stop_name":"HOWARD & WINKLER",
    "location_type":"0",
    "zone_id":""
  },
  {
    "stop_lat":29.737675,
    "wheelchair_boarding":"0",
    "stop_code":90102,
    "stop_lon":-95.500664,
    "stop_id":"90102",
    "stop_url":"",
    "parent_station":"",
    "stop_desc":"WESTHEIMER RD & HILLCROFT AVE",
    "stop_name":"HILLCROFT & WESTHEIMER",
    "location_type":"0",
    "zone_id":""
  },
  {
    "stop_lat":29.98127,
    "wheelchair_boarding":"0",
    "stop_code":6811,
    "stop_lon":-95.56833,
    "stop_id":"6811",
    "stop_url":"",
    "parent_station":"",
    "stop_desc":"",
    "stop_name":"SH 249 HWY @ CYPRESSWOOD DR",
    "location_type":"0",
    "zone_id":""
  },
  {
    "stop_lat":29.967219,
    "wheelchair_boarding":"0",
    "stop_code":6813,
    "stop_lon":-95.557701,
    "stop_id":"6813",
    "stop_url":"",
    "parent_station":"",
    "stop_desc":"",
    "stop_name":"SH 249 HWY @ GRANT RD",
    "location_type":"0",
    "zone_id":""
  },
  {
    "stop_lat":29.972202,
    "wheelchair_boarding":"0",
    "stop_code":6812,
    "stop_lon":-95.56321,
    "stop_id":"6812",
    "stop_url":"",
    "parent_station":"",
    "stop_desc":"",
    "stop_name":"SH 249 HWY @ PERRY RD",
    "location_type":"0",
    "zone_id":""
  },
  {
    "stop_lat":29.958878,
    "wheelchair_boarding":"0",
    "stop_code":6815,
    "stop_lon":-95.546037,
    "stop_id":"6815",
    "stop_url":"",
    "parent_station":"",
    "stop_desc":"",
    "stop_name":"SH 249 HWY @ FM 1960 RD",
    "location_type":"0",
    "zone_id":""
  },
  {
    "stop_lat":29.963237,
    "wheelchair_boarding":"0",
    "stop_code":6814,
    "stop_lon":-95.551422,
    "stop_id":"6814",
    "stop_url":"",
    "parent_station":"",
    "stop_desc":"",
    "stop_name":"SH 249 HWY @ WILLOW CHASE BLVD",
    "location_type":"0",
    "zone_id":""
  },
  {
    "stop_lat":29.95301,
    "wheelchair_boarding":"0",
    "stop_code":6817,
    "stop_lon":-95.53847,
    "stop_id":"6817",
    "stop_url":"",
    "parent_station":"",
    "stop_desc":"",
    "stop_name":"SH 249 HWY @ GREENS RD",
    "location_type":"0",
    "zone_id":""
  },
  {
    "stop_lat":29.956535,
    "wheelchair_boarding":"0",
    "stop_code":6816,
    "stop_lon":-95.543388,
    "stop_id":"6816",
    "stop_url":"",
    "parent_station":"",
    "stop_desc":"",
    "stop_name":"SH 249 HWY @ GESSNER RD",
    "location_type":"0",
    "zone_id":""
  },
  {
    "stop_lat":29.75419,
    "wheelchair_boarding":"0",
    "stop_code":9757,
    "stop_lon":-95.33536,
    "stop_id":"9757",
    "stop_url":"",
    "parent_station":"",
    "stop_desc":"",
    "stop_name":"YORK ST @ ENGELKE",
    "location_type":"0",
    "zone_id":""
  },
  {
    "stop_lat":29.75198,
    "wheelchair_boarding":"0",
    "stop_code":9756,
    "stop_lon":-95.3371,
    "stop_id":"9756",
    "stop_url":"",
    "parent_station":"",
    "stop_desc":"",
    "stop_name":"YORK ST @ CANAL ST",
    "location_type":"0",
    "zone_id":""
  },
  {
    "stop_lat":29.749923,
    "wheelchair_boarding":"0",
    "stop_code":9755,
    "stop_lon":-95.338738,
    "stop_id":"9755",
    "stop_url":"",
    "parent_station":"",
    "stop_desc":"",
    "stop_name":"YORK ST @ SHERMAN ST",
    "location_type":"0",
    "zone_id":""
  },
  {
    "stop_lat":29.747595,
    "wheelchair_boarding":"0",
    "stop_code":9754,
    "stop_lon":-95.340576,
    "stop_id":"9754",
    "stop_url":"",
    "parent_station":"",
    "stop_desc":"",
    "stop_name":"YORK ST @ HARRISBURG BLVD",
    "location_type":"0",
    "zone_id":""
  },
  {
    "stop_lat":29.74617,
    "wheelchair_boarding":"0",
    "stop_code":9753,
    "stop_lon":-95.34172,
    "stop_id":"9753",
    "stop_url":"",
    "parent_station":"",
    "stop_desc":"",
    "stop_name":"YORK ST @ CAPITOL ST",
    "location_type":"0",
    "zone_id":""
  },
  {
    "stop_lat":29.74386,
    "wheelchair_boarding":"0",
    "stop_code":9752,
    "stop_lon":-95.34354,
    "stop_id":"9752",
    "stop_url":"",
    "parent_station":"",
    "stop_desc":"",
    "stop_name":"YORK ST @ MC KINNEY ST",
    "location_type":"0",
    "zone_id":""
  },
  {
    "stop_lat":29.74243,
    "wheelchair_boarding":"0",
    "stop_code":9751,
    "stop_lon":-95.34469,
    "stop_id":"9751",
    "stop_url":"",
    "parent_station":"",
    "stop_desc":"",
    "stop_name":"YORK ST @ DALLAS ST",
    "location_type":"0",
    "zone_id":""
  },
  {
    "stop_lat":29.740677,
    "wheelchair_boarding":"0",
    "stop_code":9750,
    "stop_lon":-95.345069,
    "stop_id":"9750",
    "stop_url":"",
    "parent_station":"",
    "stop_desc":"",
    "stop_name":"SCOTT ST @ DENVER ST",
    "location_type":"0",
    "zone_id":""
  },
  {
    "stop_lat":29.745381,
    "wheelchair_boarding":"0",
    "stop_code":10570,
    "stop_lon":-95.356458,
    "stop_id":"10570",
    "stop_url":"",
    "parent_station":"",
    "stop_desc":"",
    "stop_name":"DOWLING ST @ LEELAND ST",
    "location_type":"0",
    "zone_id":""
  },
  {
    "stop_lat":29.749674,
    "wheelchair_boarding":"0",
    "stop_code":10572,
    "stop_lon":-95.360439,
    "stop_id":"10572",
    "stop_url":"",
    "parent_station":"",
    "stop_desc":"",
    "stop_name":"CHENEVERT ST @ BELL ST",
    "location_type":"0",
    "zone_id":""
  },
  {
    "stop_lat":29.74907,
    "wheelchair_boarding":"0",
    "stop_code":9758,
    "stop_lon":-95.35352,
    "stop_id":"9758",
    "stop_url":"",
    "parent_station":"",
    "stop_desc":"",
    "stop_name":"DOWLING ST @ LAMAR ST",
    "location_type":"0",
    "zone_id":""
  },
  {
    "stop_lat":29.848691,
    "wheelchair_boarding":"0",
    "stop_code":8848,
    "stop_lon":-95.473175,
    "stop_id":"8848",
    "stop_url":"",
    "parent_station":"",
    "stop_desc":"",
    "stop_name":"ANTOINE DR @ TIDWELL RD",
    "location_type":"0",
    "zone_id":""
  },
  {
    "stop_lat":29.792186,
    "wheelchair_boarding":"0",
    "stop_code":8849,
    "stop_lon":-95.456871,
    "stop_id":"8849",
    "stop_url":"",
    "parent_station":"",
    "stop_desc":"",
    "stop_name":"POST OAK RD @ CLARKSON LN",
    "location_type":"0",
    "zone_id":""
  },
  {
    "stop_lat":29.83254,
    "wheelchair_boarding":"0",
    "stop_code":8842,
    "stop_lon":-95.46636,
    "stop_id":"8842",
    "stop_url":"",
    "parent_station":"",
    "stop_desc":"",
    "stop_name":"43RD ST @ BOLIVIA BLVD",
    "location_type":"0",
    "zone_id":""
  },
  {
    "stop_lat":29.8367,
    "wheelchair_boarding":"0",
    "stop_code":8843,
    "stop_lon":-95.47293,
    "stop_id":"8843",
    "stop_url":"",
    "parent_station":"",
    "stop_desc":"",
    "stop_name":"ANTOINE DR @ ACORN ST",
    "location_type":"0",
    "zone_id":""
  },
  {
    "stop_lat":29.83891,
    "wheelchair_boarding":"0",
    "stop_code":8844,
    "stop_lon":-95.473,
    "stop_id":"8844",
    "stop_url":"",
    "parent_station":"",
    "stop_desc":"",
    "stop_name":"ANTOINE DR @ HOOVER ST",
    "location_type":"0",
    "zone_id":""
  },
  {
    "stop_lat":29.840528,
    "wheelchair_boarding":"0",
    "stop_code":8845,
    "stop_lon":-95.473066,
    "stop_id":"8845",
    "stop_url":"",
    "parent_station":"",
    "stop_desc":"",
    "stop_name":"ANTOINE DR @ HARDWAY DR",
    "location_type":"0",
    "zone_id":""
  },
  {
    "stop_lat":29.842735,
    "wheelchair_boarding":"0",
    "stop_code":8846,
    "stop_lon":-95.473084,
    "stop_id":"8846",
    "stop_url":"",
    "parent_station":"",
    "stop_desc":"",
    "stop_name":"ANTOINE DR @ GOLDEN FOREST DR",
    "location_type":"0",
    "zone_id":""
  },
  {
    "stop_lat":29.84521,
    "wheelchair_boarding":"0",
    "stop_code":8847,
    "stop_lon":-95.47312,
    "stop_id":"8847",
    "stop_url":"",
    "parent_station":"",
    "stop_desc":"",
    "stop_name":"ANTOINE DR @ BIRCHMONT DR",
    "location_type":"0",
    "zone_id":""
  },
  {
    "stop_lat":29.742119,
    "wheelchair_boarding":"0",
    "stop_code":7669,
    "stop_lon":-95.461208,
    "stop_id":"7669",
    "stop_url":"",
    "parent_station":"",
    "stop_desc":"",
    "stop_name":"POST OAK BLVD @ WESTHEIMER RD",
    "location_type":"0",
    "zone_id":""
  },
  {
    "stop_lat":29.744427,
    "wheelchair_boarding":"0",
    "stop_code":7668,
    "stop_lon":-95.461232,
    "stop_id":"7668",
    "stop_url":"",
    "parent_station":"",
    "stop_desc":"",
    "stop_name":"POST OAK BLVD @ GUILFORD CT",
    "location_type":"0",
    "zone_id":""
  },
  {
    "stop_lat":29.768863,
    "wheelchair_boarding":"0",
    "stop_code":7660,
    "stop_lon":-95.457573,
    "stop_id":"7660",
    "stop_url":"",
    "parent_station":"",
    "stop_desc":"",
    "stop_name":"POST OAK LN @ HOUSTONIAN",
    "location_type":"0",
    "zone_id":""
  },
  {
    "stop_lat":29.753853,
    "wheelchair_boarding":"0",
    "stop_code":7663,
    "stop_lon":-95.457626,
    "stop_id":"7663",
    "stop_url":"",
    "parent_station":"",
    "stop_desc":"",
    "stop_name":"POST OAK BLVD @ UPTOWN PARK BLVD",
    "location_type":"0",
    "zone_id":""
  },
  {
    "stop_lat":29.764922,
    "wheelchair_boarding":"0",
    "stop_code":7662,
    "stop_lon":-95.457491,
    "stop_id":"7662",
    "stop_url":"",
    "parent_station":"",
    "stop_desc":"",
    "stop_name":"WOODWAY DR @ N POST OAK LN",
    "location_type":"0",
    "zone_id":""
  },
  {
    "stop_lat":29.751073,
    "wheelchair_boarding":"0",
    "stop_code":7665,
    "stop_lon":-95.461213,
    "stop_id":"7665",
    "stop_url":"",
    "parent_station":"",
    "stop_desc":"",
    "stop_name":"POST OAK BLVD @ SAN FELIPE RD",
    "location_type":"0",
    "zone_id":""
  },
  {
    "stop_lat":29.752965,
    "wheelchair_boarding":"0",
    "stop_code":7664,
    "stop_lon":-95.459646,
    "stop_id":"7664",
    "stop_url":"",
    "parent_station":"",
    "stop_desc":"",
    "stop_name":"POST OAK BLVD @ FOUR OAKS PLACE",
    "location_type":"0",
    "zone_id":""
  },
  {
    "stop_lat":29.746413,
    "wheelchair_boarding":"0",
    "stop_code":7667,
    "stop_lon":-95.461294,
    "stop_id":"7667",
    "stop_url":"",
    "parent_station":"",
    "stop_desc":"",
    "stop_name":"POST OAK BLVD @ AMBASSADOR WAY",
    "location_type":"0",
    "zone_id":""
  },
  {
    "stop_lat":29.748282,
    "wheelchair_boarding":"0",
    "stop_code":7666,
    "stop_lon":-95.461365,
    "stop_id":"7666",
    "stop_url":"",
    "parent_station":"",
    "stop_desc":"",
    "stop_name":"POST OAK BLVD @ SAN FELIPE RD",
    "location_type":"0",
    "zone_id":""
  },
  {
    "stop_lat":29.72952,
    "wheelchair_boarding":"0",
    "stop_code":1601,
    "stop_lon":-95.361586,
    "stop_id":"1601",
    "stop_url":"",
    "parent_station":"",
    "stop_desc":"",
    "stop_name":"HOLMAN ST @ ENNIS ST",
    "location_type":"0",
    "zone_id":""
  },
  {
    "stop_lat":29.794382,
    "wheelchair_boarding":"0",
    "stop_code":1768,
    "stop_lon":-95.322293,
    "stop_id":"1768",
    "stop_url":"",
    "parent_station":"",
    "stop_desc":"",
    "stop_name":"WIPPRECHT ST @ COLLINGSWORTH ST",
    "location_type":"0",
    "zone_id":""
  },
  {
    "stop_lat":29.755786,
    "wheelchair_boarding":"0",
    "stop_code":1769,
    "stop_lon":-95.292022,
    "stop_id":"1769",
    "stop_url":"",
    "parent_station":"",
    "stop_desc":"",
    "stop_name":"CLINTON DR @ PORT HOUSTON GATE 8",
    "location_type":"0",
    "zone_id":""
  },
  {
    "stop_lat":29.782326,
    "wheelchair_boarding":"0",
    "stop_code":11841,
    "stop_lon":-95.631039,
    "stop_id":"11841",
    "stop_url":"",
    "parent_station":"",
    "stop_desc":"",
    "stop_name":"GRISBY RD @ WESTLAKE PARK BLVD",
    "location_type":"0",
    "zone_id":""
  },
  {
    "stop_lat":29.80395,
    "wheelchair_boarding":"0",
    "stop_code":1762,
    "stop_lon":-95.3205,
    "stop_id":"1762",
    "stop_url":"",
    "parent_station":"",
    "stop_desc":"",
    "stop_name":"RAND ST @ LAVENDER ST",
    "location_type":"0",
    "zone_id":""
  },
  {
    "stop_lat":29.80393,
    "wheelchair_boarding":"0",
    "stop_code":1763,
    "stop_lon":-95.32224,
    "stop_id":"1763",
    "stop_url":"",
    "parent_station":"",
    "stop_desc":"",
    "stop_name":"RAND ST @ WIPPRECHT ST",
    "location_type":"0",
    "zone_id":""
  },
  {
    "stop_lat":29.8039,
    "wheelchair_boarding":"0",
    "stop_code":1760,
    "stop_lon":-95.31736,
    "stop_id":"1760",
    "stop_url":"",
    "parent_station":"",
    "stop_desc":"",
    "stop_name":"RAND ST @ LOCKWOOD DR",
    "location_type":"0",
    "zone_id":""
  },
  {
    "stop_lat":29.80398,
    "wheelchair_boarding":"0",
    "stop_code":1761,
    "stop_lon":-95.31871,
    "stop_id":"1761",
    "stop_url":"",
    "parent_station":"",
    "stop_desc":"",
    "stop_name":"RAND ST @ PICKFAIR ST",
    "location_type":"0",
    "zone_id":""
  },
  {
    "stop_lat":29.79872,
    "wheelchair_boarding":"0",
    "stop_code":1766,
    "stop_lon":-95.32233,
    "stop_id":"1766",
    "stop_url":"",
    "parent_station":"",
    "stop_desc":"",
    "stop_name":"WIPPRECHT ST @ CAVALCADE ST",
    "location_type":"0",
    "zone_id":""
  },
  {
    "stop_lat":29.79703,
    "wheelchair_boarding":"0",
    "stop_code":1767,
    "stop_lon":-95.32231,
    "stop_id":"1767",
    "stop_url":"",
    "parent_station":"",
    "stop_desc":"",
    "stop_name":"WIPPRECHT ST @ CRANE ST",
    "location_type":"0",
    "zone_id":""
  },
  {
    "stop_lat":29.80181,
    "wheelchair_boarding":"0",
    "stop_code":1764,
    "stop_lon":-95.32239,
    "stop_id":"1764",
    "stop_url":"",
    "parent_station":"",
    "stop_desc":"",
    "stop_name":"WIPPRECHT ST @ RAND ST",
    "location_type":"0",
    "zone_id":""
  },
  {
    "stop_lat":29.800551,
    "wheelchair_boarding":"0",
    "stop_code":1765,
    "stop_lon":-95.322388,
    "stop_id":"1765",
    "stop_url":"",
    "parent_station":"",
    "stop_desc":"",
    "stop_name":"WIPPRECHT ST @ CAVALCADE ST",
    "location_type":"0",
    "zone_id":""
  },
  {
    "stop_lat":29.73072,
    "wheelchair_boarding":"0",
    "stop_code":9269,
    "stop_lon":-95.32722,
    "stop_id":"9269",
    "stop_url":"",
    "parent_station":"",
    "stop_desc":"",
    "stop_name":"TELEPHONE RD @ FOURCADE",
    "location_type":"0",
    "zone_id":""
  },
  {
    "stop_lat":29.706072,
    "wheelchair_boarding":"0",
    "stop_code":692,
    "stop_lon":-95.39637,
    "stop_id":"692",
    "stop_url":"",
    "parent_station":"",
    "stop_desc":"",
    "stop_name":"HOLCOMBE BLVD @ MD ANDERSON ST",
    "location_type":"0",
    "zone_id":""
  },
  {
    "stop_lat":29.718264,
    "wheelchair_boarding":"0",
    "stop_code":1547,
    "stop_lon":-95.274415,
    "stop_id":"1547",
    "stop_url":"",
    "parent_station":"",
    "stop_desc":"",
    "stop_name":"MANCHESTER ST @ SAN SABA ST",
    "location_type":"0",
    "zone_id":""
  },
  {
    "stop_lat":29.718476,
    "wheelchair_boarding":"0",
    "stop_code":1544,
    "stop_lon":-95.264153,
    "stop_id":"1544",
    "stop_url":"",
    "parent_station":"",
    "stop_desc":"",
    "stop_name":"MANCHESTER ST @ 92ND ST",
    "location_type":"0",
    "zone_id":""
  },
  {
    "stop_lat":29.718384,
    "wheelchair_boarding":"0",
    "stop_code":1545,
    "stop_lon":-95.269246,
    "stop_id":"1545",
    "stop_url":"",
    "parent_station":"",
    "stop_desc":"",
    "stop_name":"MANCHESTER ST @ CONCRETE ST",
    "location_type":"0",
    "zone_id":""
  },
  {
    "stop_lat":29.718581,
    "wheelchair_boarding":"0",
    "stop_code":1542,
    "stop_lon":-95.259983,
    "stop_id":"1542",
    "stop_url":"",
    "parent_station":"",
    "stop_desc":"",
    "stop_name":"MANCHESTER ST @ CENTRAL ST",
    "location_type":"0",
    "zone_id":""
  },
  {
    "stop_lat":29.71853,
    "wheelchair_boarding":"0",
    "stop_code":1543,
    "stop_lon":-95.262099,
    "stop_id":"1543",
    "stop_url":"",
    "parent_station":"",
    "stop_desc":"",
    "stop_name":"MANCHESTER ST @ 93RD ST",
    "location_type":"0",
    "zone_id":""
  },
  {
    "stop_lat":29.718673,
    "wheelchair_boarding":"0",
    "stop_code":1540,
    "stop_lon":-95.255859,
    "stop_id":"1540",
    "stop_url":"",
    "parent_station":"",
    "stop_desc":"",
    "stop_name":"MANCHESTER ST @ 96TH ST",
    "location_type":"0",
    "zone_id":""
  },
  {
    "stop_lat":29.718626,
    "wheelchair_boarding":"0",
    "stop_code":1541,
    "stop_lon":-95.257911,
    "stop_id":"1541",
    "stop_url":"",
    "parent_station":"",
    "stop_desc":"",
    "stop_name":"MANCHESTER ST @ 95TH ST",
    "location_type":"0",
    "zone_id":""
  },
  {
    "stop_lat":29.943747,
    "wheelchair_boarding":"0",
    "stop_code":11111,
    "stop_lon":-95.403723,
    "stop_id":"11111",
    "stop_url":"",
    "parent_station":"",
    "stop_desc":"",
    "stop_name":"BENMAR DR @ NORTHCHASE DR",
    "location_type":"0",
    "zone_id":""
  },
  {
    "stop_lat":29.732943,
    "wheelchair_boarding":"0",
    "stop_code":698,
    "stop_lon":-95.434493,
    "stop_id":"698",
    "stop_url":"",
    "parent_station":"",
    "stop_desc":"",
    "stop_name":"RICHMOND AVE @ EDLOE ST",
    "location_type":"0",
    "zone_id":""
  },
  {
    "stop_lat":29.732594,
    "wheelchair_boarding":"0",
    "stop_code":699,
    "stop_lon":-95.435441,
    "stop_id":"699",
    "stop_url":"",
    "parent_station":"",
    "stop_desc":"",
    "stop_name":"RICHMOND AVE @ TIMMONS LN",
    "location_type":"0",
    "zone_id":""
  },
  {
    "stop_lat":29.718184,
    "wheelchair_boarding":"0",
    "stop_code":1548,
    "stop_lon":-95.277282,
    "stop_id":"1548",
    "stop_url":"",
    "parent_station":"",
    "stop_desc":"",
    "stop_name":"MANCHESTER ST @ FRIO",
    "location_type":"0",
    "zone_id":""
  },
  {
    "stop_lat":29.723199,
    "wheelchair_boarding":"0",
    "stop_code":1549,
    "stop_lon":-95.278361,
    "stop_id":"1549",
    "stop_url":"",
    "parent_station":"",
    "stop_desc":"",
    "stop_name":"BROADWAY ST @ CYPRESS ST",
    "location_type":"0",
    "zone_id":""
  },
  {
    "stop_lat":29.848314,
    "wheelchair_boarding":"0",
    "stop_code":2798,
    "stop_lon":-95.316071,
    "stop_id":"2798",
    "stop_url":"",
    "parent_station":"",
    "stop_desc":"",
    "stop_name":"TIDWELL RD @ PEACHTREE ST",
    "location_type":"0",
    "zone_id":""
  },
  {
    "stop_lat":29.729517,
    "wheelchair_boarding":"0",
    "stop_code":7881,
    "stop_lon":-95.605607,
    "stop_id":"7881",
    "stop_url":"",
    "parent_station":"",
    "stop_desc":"",
    "stop_name":"DAIRY ASHFORD RD @ RICHMOND AVE",
    "location_type":"0",
    "zone_id":""
  },
  {
    "stop_lat":29.728085,
    "wheelchair_boarding":"0",
    "stop_code":7880,
    "stop_lon":-95.60556,
    "stop_id":"7880",
    "stop_url":"",
    "parent_station":"",
    "stop_desc":"",
    "stop_name":"DAIRY ASHFORD RD @ SKYMEADOW DR",
    "location_type":"0",
    "zone_id":""
  },
  {
    "stop_lat":29.735944,
    "wheelchair_boarding":"0",
    "stop_code":7883,
    "stop_lon":-95.605705,
    "stop_id":"7883",
    "stop_url":"",
    "parent_station":"",
    "stop_desc":"",
    "stop_name":"DAIRY ASHFORD RD @ WESTHEIMER RD",
    "location_type":"0",
    "zone_id":""
  },
  {
    "stop_lat":29.770851,
    "wheelchair_boarding":"0",
    "stop_code":5618,
    "stop_lon":-95.420463,
    "stop_id":"5618",
    "stop_url":"",
    "parent_station":"",
    "stop_desc":"",
    "stop_name":"WASHINGTON AVE @ BIRDSALL ST",
    "location_type":"0",
    "zone_id":""
  },
  {
    "stop_lat":29.73349,
    "wheelchair_boarding":"0",
    "stop_code":7882,
    "stop_lon":-95.60568,
    "stop_id":"7882",
    "stop_url":"",
    "parent_station":"",
    "stop_desc":"DAIRY ASHFORD RD & ASHFORD MEADOW DR",
    "stop_name":"DAIRY ASHFORD RD @ ASHFORD MEADOW D",
    "location_type":"0",
    "zone_id":""
  },
  {
    "stop_lat":29.7723,
    "wheelchair_boarding":"0",
    "stop_code":5612,
    "stop_lon":-95.423942,
    "stop_id":"5612",
    "stop_url":"",
    "parent_station":"",
    "stop_desc":"",
    "stop_name":"WASHINGTON AVE @ SCHULER ST",
    "location_type":"0",
    "zone_id":""
  },
  {
    "stop_lat":29.731238,
    "wheelchair_boarding":"0",
    "stop_code":7885,
    "stop_lon":-95.651566,
    "stop_id":"7885",
    "stop_url":"",
    "parent_station":"",
    "stop_desc":"",
    "stop_name":"RICHMOND AVE @ GREEN CREST DR",
    "location_type":"0",
    "zone_id":""
  },
  {
    "stop_lat":29.770997,
    "wheelchair_boarding":"0",
    "stop_code":5610,
    "stop_lon":-95.420471,
    "stop_id":"5610",
    "stop_url":"",
    "parent_station":"",
    "stop_desc":"",
    "stop_name":"WASHINGTON AVE @ BIRDSALL ST",
    "location_type":"0",
    "zone_id":""
  },
  {
    "stop_lat":29.771124,
    "wheelchair_boarding":"0",
    "stop_code":5611,
    "stop_lon":-95.42205,
    "stop_id":"5611",
    "stop_url":"",
    "parent_station":"",
    "stop_desc":"",
    "stop_name":"WASHINGTON AVE @ COHN",
    "location_type":"0",
    "zone_id":""
  },
  {
    "stop_lat":29.77318,
    "wheelchair_boarding":"0",
    "stop_code":5616,
    "stop_lon":-95.42561,
    "stop_id":"5616",
    "stop_url":"",
    "parent_station":"",
    "stop_desc":"",
    "stop_name":"WESTCOTT ST @ COPPAGE ST",
    "location_type":"0",
    "zone_id":""
  },
  {
    "stop_lat":29.770971,
    "wheelchair_boarding":"0",
    "stop_code":5617,
    "stop_lon":-95.421967,
    "stop_id":"5617",
    "stop_url":"",
    "parent_station":"",
    "stop_desc":"",
    "stop_name":"WASHINGTON AVE @ COHN",
    "location_type":"0",
    "zone_id":""
  },
  {
    "stop_lat":29.775839,
    "wheelchair_boarding":"0",
    "stop_code":5614,
    "stop_lon":-95.427071,
    "stop_id":"5614",
    "stop_url":"",
    "parent_station":"",
    "stop_desc":"",
    "stop_name":"WASHINGTON AVE @ HAMMAN ST",
    "location_type":"0",
    "zone_id":""
  },
  {
    "stop_lat":29.729566,
    "wheelchair_boarding":"0",
    "stop_code":7884,
    "stop_lon":-95.648828,
    "stop_id":"7884",
    "stop_url":"",
    "parent_station":"",
    "stop_desc":"",
    "stop_name":"RICHMOND AVE @ S RICHMOND AVE",
    "location_type":"0",
    "zone_id":""
  },
  {
    "stop_lat":29.735308,
    "wheelchair_boarding":"0",
    "stop_code":7887,
    "stop_lon":-95.648544,
    "stop_id":"7887",
    "stop_url":"",
    "parent_station":"",
    "stop_desc":"",
    "stop_name":"WESTHEIMER RD @ RICHMOND AVE",
    "location_type":"0",
    "zone_id":""
  },
  {
    "stop_lat":29.732636,
    "wheelchair_boarding":"0",
    "stop_code":7886,
    "stop_lon":-95.653351,
    "stop_id":"7886",
    "stop_url":"",
    "parent_station":"",
    "stop_desc":"",
    "stop_name":"RICHMOND AVE @ WESTHEIMER RD",
    "location_type":"0",
    "zone_id":""
  },
  {
    "stop_lat":29.902222,
    "wheelchair_boarding":"0",
    "stop_code":11568,
    "stop_lon":-95.39153,
    "stop_id":"11568",
    "stop_url":"",
    "parent_station":"",
    "stop_desc":"",
    "stop_name":"ALDINE MAIL ROUTE RD @ LILLJA RD",
    "location_type":"0",
    "zone_id":""
  },
  {
    "stop_lat":29.935537,
    "wheelchair_boarding":"0",
    "stop_code":11569,
    "stop_lon":-95.398581,
    "stop_id":"11569",
    "stop_url":"",
    "parent_station":"",
    "stop_desc":"",
    "stop_name":"IMPERIAL VALLEY DR @ COLOMBARD DR",
    "location_type":"0",
    "zone_id":""
  },
  {
    "stop_lat":29.866629,
    "wheelchair_boarding":"0",
    "stop_code":11560,
    "stop_lon":-95.473104,
    "stop_id":"11560",
    "stop_url":"",
    "parent_station":"",
    "stop_desc":"",
    "stop_name":"VICTORY DR @ ANOTINE DR",
    "location_type":"0",
    "zone_id":""
  },
  {
    "stop_lat":29.775866,
    "wheelchair_boarding":"0",
    "stop_code":11561,
    "stop_lon":-95.329485,
    "stop_id":"11561",
    "stop_url":"",
    "parent_station":"",
    "stop_desc":"",
    "stop_name":"BENSON ST @ LYONS AVE",
    "location_type":"0",
    "zone_id":""
  },
  {
    "stop_lat":29.755467,
    "wheelchair_boarding":"0",
    "stop_code":11562,
    "stop_lon":-95.297725,
    "stop_id":"11562",
    "stop_url":"",
    "parent_station":"",
    "stop_desc":"",
    "stop_name":"ZOLTOWSKI   @ CLINTON DR",
    "location_type":"0",
    "zone_id":""
  },
  {
    "stop_lat":29.736793,
    "wheelchair_boarding":"0",
    "stop_code":11563,
    "stop_lon":-95.432906,
    "stop_id":"11563",
    "stop_url":"",
    "parent_station":"",
    "stop_desc":"",
    "stop_name":"MARQUART @ BRANARD ST",
    "location_type":"0",
    "zone_id":""
  },